[[{"Cle": "musique_en_scene", "name": "Productions musicales", "key": "Production", "color": "#74222C", "text_color": "#fff"}, {"Cle": "demos", "name": "Orchestres D\u00e9mos", "key": "D\u00e9mos", "color": "#96C7FC", "text_color": "#001B3B"}, {"Cle": "expositions", "name": "Expositions", "key": "Expositions", "color": "#C14D34", "text_color": "#fff"}, {"Cle": "orchestre_de_paris", "name": "Tourn\u00e9es de l'Orchestre de Paris", "key": "OP", "color": "#005BA4", "text_color": "#fff"}, {"Cle": "education", "name": "Projets \u00e9ducatifs", "key": "Education", "color": "#0A7A80", "text_color": "#fff"}, {"Cle": "pde", "name": "Philharmonie des enfants", "key": "PDE", "color": "#FED070", "text_color": "#001B3B"}, {"Cle": "conseil", "name": "Conseil en ingenierie culturelle", "key": "Conseil", "color": "#f0c107", "text_color": "#fff"}, {"Cle": "pad", "name": "Abonn\u00e9s \u00e0 Philharmonie \u00e0 la demande", "key": "PAD", "color": "#1DC1C6", "text_color": "#001B3B"}], [{"nom": "Barbican Center", "nom_projet": "TRILOGIE COCTEAU PHILIP GLASS", "saison": "23-24", "date": null, "type_cooperation": "Coproduction", "prospect": "non", "carte": "oui", "adresse": "Silk Street", "complement_adresse": "Barbican", "code_postal": "EC2Y 8DS", "ville": "London", "region": null, "etat": null, "pays": "Royaume-Uni", "lien": "https://www.barbican.org.uk/", "action": "Production", "latitude": "51.5200415", "longitude": "-0.0924525"}, {"nom": "Barbican Center", "nom_projet": null, "saison": null, "date": null, "type_cooperation": "Coproduction", "prospect": "oui", "carte": "oui", "adresse": "Silk Street", "complement_adresse": "Barbican", "code_postal": "EC2Y 8DS", "ville": "London", "region": null, "etat": null, "pays": "Royaume-Uni", "lien": "https://www.barbican.org.uk/", "action": "Production", "latitude": "51.5200415", "longitude": "-0.0924525"}, {"nom": "Barbican Center", "nom_projet": "INTO THE WOODS", "saison": "24-25", "date": null, "type_cooperation": "Coproduction", "prospect": "oui", "carte": "oui", "adresse": "Silk Street", "complement_adresse": "Barbican", "code_postal": "EC2Y 8DS", "ville": "London", "region": null, "etat": null, "pays": "Royaume-Uni", "lien": "https://www.barbican.org.uk/", "action": "Production", "latitude": "51.5200415", "longitude": "-0.0924525"}, {"nom": "BEIJING MUSIC FESTIVAL", "nom_projet": "TRANSFIGUR\u00c9 12 VIES DE SCH\u00d6NBERG", "saison": "24-25", "date": "10/09 - 23/10 2024", "type_cooperation": "Coproduction", "prospect": "oui", "carte": "oui", "adresse": null, "complement_adresse": null, "code_postal": null, "ville": "Beijing", "region": null, "etat": null, "pays": "Chine", "lien": "http://bmf.org.cn/", "action": "Production", "latitude": "39.906217", "longitude": "116.3912757"}, {"nom": "BEIJING MUSIC FESTIVAL", "nom_projet": "NOTRE SACRE ", "saison": "25-26", "date": null, "type_cooperation": "Coproduction", "prospect": "oui", "carte": "oui", "adresse": null, "complement_adresse": null, "code_postal": null, "ville": "Beijing", "region": null, "etat": null, "pays": "Chine", "lien": "http://bmf.org.cn/", "action": "Production", "latitude": "39.906217", "longitude": "116.3912757"}, {"nom": "Beijing Music Festival", "nom_projet": "INTO THE WOODS", "saison": "24-25", "date": null, "type_cooperation": null, "prospect": "oui", "carte": "oui", "adresse": null, "complement_adresse": null, "code_postal": null, "ville": "Beijing", "region": null, "etat": null, "pays": "Chine", "lien": "http://bmf.org.cn/", "action": "Production", "latitude": "39.906217", "longitude": "116.3912757"}, {"nom": "Bozar", "nom_projet": "TRANSFIGUR\u00c9 12 VIES DE SCH\u00d6NBERG", "saison": null, "date": null, "type_cooperation": "Diffusion", "prospect": "oui", "carte": "oui", "adresse": "Palais des Beaux-Arts", "complement_adresse": "Rue Ravenstein\u00a023", "code_postal": "1000", "ville": "Bruxelles", "region": null, "etat": null, "pays": "Belgique", "lien": "https://www.bozar.be/", "action": "Production", "latitude": "45.56817235", "longitude": "5.919712942411912"}, {"nom": "Bozar", "nom_projet": "D\u2019EST EN MUSIQUE", "saison": null, "date": null, "type_cooperation": "Coproduction", "prospect": "non", "carte": "oui", "adresse": "Palais des Beaux-Arts", "complement_adresse": "Rue Ravenstein\u00a023", "code_postal": "1000", "ville": "Bruxelles", "region": null, "etat": null, "pays": "Belgique", "lien": "https://www.bozar.be/", "action": "Production", "latitude": "45.56817235", "longitude": "5.919712942411912"}, {"nom": "BOZAR", "nom_projet": "CARNETS DE L\u00c0-BAS", "saison": null, "date": null, "type_cooperation": "Diffusion", "prospect": "oui", "carte": "oui", "adresse": "Palais des Beaux-Arts", "complement_adresse": "Rue Ravenstein\u00a023", "code_postal": "1000", "ville": "Bruxelles", "region": null, "etat": null, "pays": "Belgique", "lien": "https://www.bozar.be/", "action": "Production", "latitude": "45.56817235", "longitude": "5.919712942411912"}, {"nom": "BOZAR", "nom_projet": "MITTWOCH", "saison": null, "date": null, "type_cooperation": "Diffusion", "prospect": "oui", "carte": "oui", "adresse": "Palais des Beaux-Arts", "complement_adresse": "Rue Ravenstein\u00a023", "code_postal": "1000", "ville": "Bruxelles", "region": null, "etat": null, "pays": "Belgique", "lien": "https://www.bozar.be/", "action": "Production", "latitude": "45.56817235", "longitude": "5.919712942411912"}, {"nom": "BOZAR", "nom_projet": "DONNERSTAG", "saison": null, "date": null, "type_cooperation": "Diffusion", "prospect": "oui", "carte": "oui", "adresse": "Palais des Beaux-Arts", "complement_adresse": "Rue Ravenstein\u00a023", "code_postal": "1000", "ville": "Bruxelles", "region": null, "etat": null, "pays": "Belgique", "lien": "https://www.bozar.be/", "action": "Production", "latitude": "45.56817235", "longitude": "5.919712942411912"}, {"nom": "BOZAR", "nom_projet": "ANTIGONE", "saison": null, "date": null, "type_cooperation": "Diffusion", "prospect": "oui", "carte": "oui", "adresse": "Palais des Beaux-Arts", "complement_adresse": "Rue Ravenstein\u00a023", "code_postal": "1000", "ville": "Bruxelles", "region": null, "etat": null, "pays": "Belgique", "lien": "https://www.bozar.be/", "action": "Production", "latitude": "45.56817235", "longitude": "5.919712942411912"}, {"nom": "Cit\u00e9 musicale ", "nom_projet": "TRILOGIE COCTEAU PHILIP GLASS", "saison": "23-24", "date": null, "type_cooperation": "Coproduction", "prospect": "non", "carte": "oui", "adresse": "Arsenal", "complement_adresse": "3a Avenue Ney", "code_postal": "57000", "ville": "Metz", "region": "Grand Est", "etat": null, "pays": "France", "lien": "https://www.citemusicale-metz.fr/", "action": "Production", "latitude": "49.114011", "longitude": "6.170471"}, {"nom": "Cit\u00e9 musicale ", "nom_projet": "CARNETS DE L\u00c0-BAS", "saison": null, "date": null, "type_cooperation": "Diffusion", "prospect": "oui", "carte": "oui", "adresse": "Arsenal", "complement_adresse": "3a Avenue Ney", "code_postal": "57000", "ville": "Metz", "region": "Grand Est", "etat": null, "pays": "France", "lien": "https://www.citemusicale-metz.fr/", "action": "Production", "latitude": "49.114011", "longitude": "6.170471"}, {"nom": "Cit\u00e9 musicale ", "nom_projet": "D\u2019EST EN MUSIQUE", "saison": null, "date": null, "type_cooperation": "Diffusion", "prospect": "oui", "carte": "oui", "adresse": "Arsenal", "complement_adresse": "3a Avenue Ney", "code_postal": "57000", "ville": "Metz", "region": "Grand Est", "etat": null, "pays": "France", "lien": "https://www.citemusicale-metz.fr/", "action": "Production", "latitude": "49.114011", "longitude": "6.170471"}, {"nom": "DETROIT OPERA", "nom_projet": "TRANSFIGUR\u00c9 12 VIES DE SCH\u00d6NBERG", "saison": null, "date": null, "type_cooperation": "Coproduction", "prospect": "oui", "carte": "oui", "adresse": "1526 Broadway", "complement_adresse": null, "code_postal": "48226", "ville": "Detroit", "region": null, "etat": "MI", "pays": "Etats-Unis", "lien": "https://detroitopera.org/", "action": "Production", "latitude": null, "longitude": null}, {"nom": "EDMOND OPERA", "nom_projet": "TRANSFIGUR\u00c9 12 VIES DE SCH\u00d6NBERG", "saison": null, "date": null, "type_cooperation": "Coproduction", "prospect": "oui", "carte": "oui", "adresse": null, "complement_adresse": null, "code_postal": null, "ville": null, "region": null, "etat": null, "pays": null, "lien": null, "action": "Production", "latitude": null, "longitude": null}, {"nom": "Elbphilharmonie", "nom_projet": "INTO THE WOODS", "saison": "24-25", "date": null, "type_cooperation": null, "prospect": "oui", "carte": "oui", "adresse": "Platz d. Deutschen Einheit 4", "complement_adresse": null, "code_postal": "20457", "ville": "Hamburg", "region": null, "etat": null, "pays": "Allemagne", "lien": "https://www.elbphilharmonie.de/", "action": "Production", "latitude": null, "longitude": null}, {"nom": "Festival Spoleto", "nom_projet": "NOTRE RADEAU ", "saison": "24-25", "date": null, "type_cooperation": "Diffusion", "prospect": "oui", "carte": "oui", "adresse": null, "complement_adresse": null, "code_postal": null, "ville": "Spoleto", "region": null, "etat": null, "pays": "Italie", "lien": "https://www.festivaldispoleto.com/", "action": "Production", "latitude": "42.7355124", "longitude": "12.7363357"}, {"nom": "Festival Spoleto", "nom_projet": "NOTRE SACRE ", "saison": "24-25", "date": null, "type_cooperation": "Diffusion", "prospect": "oui", "carte": "oui", "adresse": null, "complement_adresse": null, "code_postal": null, "ville": "Spoleto", "region": null, "etat": null, "pays": "Italie", "lien": "https://www.festivaldispoleto.com/", "action": "Production", "latitude": "42.7355124", "longitude": "12.7363357"}, {"nom": "Fondation Gulbenkian", "nom_projet": "D\u2019EST EN MUSIQUE", "saison": "23-24", "date": null, "type_cooperation": "Coproduction", "prospect": "non", "carte": "oui", "adresse": null, "complement_adresse": null, "code_postal": null, "ville": null, "region": null, "etat": null, "pays": "Portugal", "lien": null, "action": "Production", "latitude": "40.0332629", "longitude": "-7.8896263"}, {"nom": "Fondation Gulbenkian", "nom_projet": "CARNETS DE L\u00c0-BAS", "saison": "24-25", "date": null, "type_cooperation": "Diffusion", "prospect": "oui", "carte": "oui", "adresse": null, "complement_adresse": null, "code_postal": null, "ville": null, "region": null, "etat": null, "pays": "Portugal", "lien": null, "action": "Production", "latitude": "40.0332629", "longitude": "-7.8896263"}, {"nom": "Fondazione Romaeuropa", "nom_projet": "TRILOGIE COCTEAU PHILIP GLASS", "saison": null, "date": null, "type_cooperation": "Diffusion", "prospect": "oui", "carte": "oui", "adresse": "Via dei Magazzini Generali, 20A", "complement_adresse": null, "code_postal": "00154", "ville": "Roma", "region": null, "etat": null, "pays": "Italie", "lien": "https://romaeuropa.net/", "action": "Production", "latitude": "41.8718352", "longitude": "12.47749"}, {"nom": "French Institute Alliance Fran\u00e7aise (FIAF)", "nom_projet": "D\u2019EST EN MUSIQUE", "saison": null, "date": null, "type_cooperation": "Coproduction", "prospect": "oui", "carte": "oui", "adresse": "22 East 60th Street", "complement_adresse": null, "code_postal": "10022", "ville": "New York", "region": null, "etat": "NY", "pays": "Etats-Unis", "lien": "https://fiaf.org", "action": "Production", "latitude": null, "longitude": null}, {"nom": "French Institute Alliance Fran\u00e7aise (FIAF)", "nom_projet": "CARNETS DE L\u00c0-BAS", "saison": null, "date": null, "type_cooperation": "Diffusion", "prospect": "oui", "carte": "oui", "adresse": "22 East 60th Street", "complement_adresse": null, "code_postal": "10022", "ville": "New York", "region": null, "etat": "NY", "pays": "Etats-Unis", "lien": "https://fiaf.org", "action": "Production", "latitude": null, "longitude": null}, {"nom": "French Institute Alliance Fran\u00e7aise (FIAF)", "nom_projet": "SJP UNE PETITE HISTOIRE JAZZ DU RUGBY", "saison": null, "date": null, "type_cooperation": "Coproduction", "prospect": "oui", "carte": "oui", "adresse": "22 East 60th Street", "complement_adresse": null, "code_postal": "10022", "ville": "New York", "region": null, "etat": "NY", "pays": "Etats-Unis", "lien": "https://fiaf.org", "action": "Production", "latitude": null, "longitude": null}, {"nom": "French Institute Alliance Fran\u00e7aise (FIAF)", "nom_projet": "TRILOGIE COCTEAU PHILIP GLASS", "saison": null, "date": null, "type_cooperation": "Coproduction", "prospect": "oui", "carte": "oui", "adresse": "22 East 60th Street", "complement_adresse": null, "code_postal": "10022", "ville": "New York", "region": null, "etat": "NY", "pays": "Etats-Unis", "lien": "https://fiaf.org", "action": "Production", "latitude": null, "longitude": null}, {"nom": "Grand Th\u00e9\u00e2tre de Luxembourg", "nom_projet": "INTO THE WOODS", "saison": "24-25", "date": null, "type_cooperation": null, "prospect": "oui", "carte": "oui", "adresse": "1, rond-point Schuman", "complement_adresse": null, "code_postal": "L-2525", "ville": "Luxembourg", "region": null, "etat": null, "pays": "Luxembourg", "lien": "https://theatres.lu/", "action": "Production", "latitude": null, "longitude": null}, {"nom": "Great Amber", "nom_projet": "TRILOGIE COCTEAU PHILIP GLASS", "saison": null, "date": null, "type_cooperation": "Diffusion", "prospect": "oui", "carte": "oui", "adresse": "Radio iela 8", "complement_adresse": null, "code_postal": "LV-3401", "ville": "Liep\u0101ja", "region": null, "etat": null, "pays": "Lituanie", "lien": "https://lielaisdzintars.lv/", "action": "Production", "latitude": null, "longitude": null}, {"nom": "La Filature Sc\u00e8ne Nationale", "nom_projet": "CARNETS DE L\u00c0-BAS", "saison": "23-24", "date": "16/04/2024 00:00:00", "type_cooperation": "Coproduction", "prospect": "non", "carte": "oui", "adresse": "20, all\u00e9e Nathan Katz", "complement_adresse": null, "code_postal": "68100", "ville": "Mulhouse", "region": "Grand Est", "etat": null, "pays": "France", "lien": "https://www.lafilature.org/", "action": "Production", "latitude": "47.753808", "longitude": "7.349128"}, {"nom": "La MC2 Grenoble", "nom_projet": "TRANSFIGUR\u00c9 12 VIES DE SCH\u00d6NBERG", "saison": null, "date": null, "type_cooperation": "Diffusion", "prospect": "non", "carte": "oui", "adresse": "4, rue Paul Claudel", "complement_adresse": "CS 92448", "code_postal": "38034", "ville": "Grenoble", "region": "Auvergne-Rh\u00f4ne-Alpes", "etat": null, "pays": "France", "lien": "https://www.mc2grenoble.fr/", "action": "Production", "latitude": "45.17229", "longitude": "5.733616"}, {"nom": "La Monnaie", "nom_projet": "NOTRE RADEAU ", "saison": "24-25", "date": null, "type_cooperation": "Coproduction", "prospect": "oui", "carte": "oui", "adresse": "Place de la Monnaie", "complement_adresse": null, "code_postal": "1000", "ville": "Bruxelles", "region": null, "etat": null, "pays": "Belgique", "lien": "https://www.lamonnaiedemunt.be/", "action": "Production", "latitude": "50.849896099999995", "longitude": "4.353578593400395"}, {"nom": "La Villette", "nom_projet": "NOTRE SACRE ", "saison": "23-24", "date": "12-13 avril 2024", "type_cooperation": "Cor\u00e9alisation", "prospect": "non", "carte": "oui", "adresse": "211, avenue Jean Jaur\u00e8s", "complement_adresse": null, "code_postal": "75019", "ville": "Paris", "region": "\u00cele-de-France", "etat": null, "pays": "France", "lien": "https://lavillette.com/", "action": "Production", "latitude": "48.888952", "longitude": "2.392454"}, {"nom": "La Villette", "nom_projet": "RESURRECTION", "saison": "24-25", "date": "NOV 2024", "type_cooperation": "Cor\u00e9alisation", "prospect": "non", "carte": "oui", "adresse": "211, avenue Jean Jaur\u00e8s", "complement_adresse": null, "code_postal": "75019", "ville": "Paris", "region": "\u00cele-de-France", "etat": null, "pays": "France", "lien": "https://lavillette.com/", "action": "Production", "latitude": "48.888952", "longitude": "2.392454"}, {"nom": "L'Auditori", "nom_projet": "ANTIGONE", "saison": "25-26", "date": null, "type_cooperation": "Coproduction", "prospect": "oui", "carte": "oui", "adresse": "Carrer de Lepant, 150", "complement_adresse": null, "code_postal": "08013", "ville": "Barcelona", "region": null, "etat": null, "pays": "Espagne", "lien": "https://www.auditori.cat/", "action": "Production", "latitude": "41.3985399", "longitude": "2.18565714337809"}, {"nom": "Le Lieu unique", "nom_projet": "CARNETS DE L\u00c0-BAS", "saison": null, "date": null, "type_cooperation": "Diffusion", "prospect": "oui", "carte": "oui", "adresse": "Quai Ferdinand Favre", "complement_adresse": null, "code_postal": "44000", "ville": "Nantes", "region": "Pays de la Loire", "etat": null, "pays": "France", "lien": "https://www.lelieuunique.com/", "action": "Production", "latitude": "47.214868", "longitude": "-1.544248"}, {"nom": "Le Lieu unique", "nom_projet": "D\u2019EST EN MUSIQUE", "saison": null, "date": null, "type_cooperation": "Diffusion", "prospect": "oui", "carte": "oui", "adresse": "Quai Ferdinand Favre", "complement_adresse": null, "code_postal": "44000", "ville": "Nantes", "region": "Pays de la Loire", "etat": null, "pays": "France", "lien": "https://www.lelieuunique.com/", "action": "Production", "latitude": "47.214868", "longitude": "-1.544248"}, {"nom": "Megaron Ath\u00e8nes", "nom_projet": "NOTRE SACRE ", "saison": null, "date": null, "type_cooperation": "Coproduction", "prospect": "oui", "carte": "oui", "adresse": "Sofias Ave.", "complement_adresse": "Kokkali St. 1", "code_postal": "115 21", "ville": "Ath\u00e8nes", "region": null, "etat": null, "pays": "Gr\u00e8ce", "lien": "https://www.megaron.gr/", "action": "Production", "latitude": null, "longitude": null}, {"nom": "Megaron Ath\u00e8nes", "nom_projet": "NOTRE SACRE ", "saison": null, "date": null, "type_cooperation": "Coproduction", "prospect": "oui", "carte": "oui", "adresse": "Sofias Ave.", "complement_adresse": "Kokkali St. 1", "code_postal": "115 21", "ville": "Ath\u00e8nes", "region": null, "etat": null, "pays": "Gr\u00e8ce", "lien": "https://www.megaron.gr/", "action": "Production", "latitude": null, "longitude": null}, {"nom": "National Concert Hall ", "nom_projet": "TRILOGIE COCTEAU PHILIP GLASS", "saison": "23-24", "date": null, "type_cooperation": "Coproduction", "prospect": "non", "carte": "oui", "adresse": "Earlsfort Terrace", "complement_adresse": "Saint Kevin's", "code_postal": "D02 N527", "ville": "Dublin", "region": null, "etat": null, "pays": "Irlande", "lien": "https://www.nch.ie/", "action": "Production", "latitude": null, "longitude": null}, {"nom": "NY Phil", "nom_projet": "INTO THE WOODS", "saison": "24-25", "date": null, "type_cooperation": null, "prospect": "oui", "carte": "oui", "adresse": "10 Lincoln Center Plaza", "complement_adresse": "David Geffen Hall", "code_postal": "10023-6970", "ville": "New York", "region": null, "etat": "NY", "pays": "Etats-Unis", "lien": "https://nyphil.org/", "action": "Production", "latitude": null, "longitude": null}, {"nom": "Op\u00e9ra de Dijon", "nom_projet": "TRANSFIGUR\u00c9 12 VIES DE SCH\u00d6NBERG", "saison": null, "date": null, "type_cooperation": "Diffusion", "prospect": "non", "carte": "oui", "adresse": "18, boulevard de Verdun", "complement_adresse": null, "code_postal": "21000", "ville": "Dijon", "region": "Bourgogne-Franche-Comt\u00e9", "etat": null, "pays": "France", "lien": "https://opera-dijon.fr/", "action": "Production", "latitude": "47.32818", "longitude": "5.053433"}, {"nom": "Op\u00e9ra de Nice", "nom_projet": "TRANSFIGUR\u00c9 12 VIES DE SCH\u00d6NBERG", "saison": "23-24", "date": "9-11 janvier 2024", "type_cooperation": "Coproduction", "prospect": "non", "carte": "oui", "adresse": "4-6 Rue Saint-Fran\u00e7ois de Paule", "complement_adresse": null, "code_postal": "06300", "ville": "Nice", "region": "Provence-Alpes-C\u00f4te d'Azur", "etat": null, "pays": "France", "lien": "https://www.opera-nice.org/", "action": "Production", "latitude": "43.695702", "longitude": "7.272356"}, {"nom": "Op\u00e9ra de Saint-Etienne", "nom_projet": "D\u2019EST EN MUSIQUE", "saison": null, "date": null, "type_cooperation": "Diffusion", "prospect": "oui", "carte": "oui", "adresse": "B.P. 237", "complement_adresse": null, "code_postal": "42013", "ville": "Saint-Etienne", "region": "Auvergne-Rh\u00f4ne-Alpes", "etat": null, "pays": "France", "lien": "https://opera.saint-etienne.fr/", "action": "Production", "latitude": "46.67219", "longitude": "-0.581709"}, {"nom": "Op\u00e9ra de Saint-Etienne", "nom_projet": "CARNETS DE L\u00c0-BAS", "saison": null, "date": null, "type_cooperation": "Diffusion", "prospect": "oui", "carte": "oui", "adresse": "B.P. 237", "complement_adresse": null, "code_postal": "42013", "ville": "Saint-Etienne", "region": "Auvergne-Rh\u00f4ne-Alpes", "etat": null, "pays": "France", "lien": "https://opera.saint-etienne.fr/", "action": "Production", "latitude": "46.67219", "longitude": "-0.581709"}, {"nom": "Op\u00e9ra de Saint-Etienne", "nom_projet": "TRILOGIE COCTEAU PHILIP GLASS", "saison": "24-25", "date": null, "type_cooperation": "Diffusion", "prospect": "oui", "carte": "oui", "adresse": "B.P. 237", "complement_adresse": null, "code_postal": "42013", "ville": "Saint-Etienne", "region": "Auvergne-Rh\u00f4ne-Alpes", "etat": null, "pays": "France", "lien": "https://opera.saint-etienne.fr/", "action": "Production", "latitude": "46.67219", "longitude": "-0.581709"}, {"nom": "Op\u00e9ra de Saint-Etienne", "nom_projet": "NOTRE SACRE ", "saison": "24-25", "date": null, "type_cooperation": "Diffusion", "prospect": "oui", "carte": "oui", "adresse": "B.P. 237", "complement_adresse": null, "code_postal": "42013", "ville": "Saint-Etienne", "region": "Auvergne-Rh\u00f4ne-Alpes", "etat": null, "pays": "France", "lien": "https://opera.saint-etienne.fr/", "action": "Production", "latitude": "46.67219", "longitude": "-0.581709"}, {"nom": "Op\u00e9ra National de Bordeaux", "nom_projet": "TRILOGIE COCTEAU PHILIP GLASS", "saison": "23-24", "date": null, "type_cooperation": "Coproduction", "prospect": "non", "carte": "oui", "adresse": "Place de la com\u00e9die", "complement_adresse": "BP 90095", "code_postal": "33025", "ville": "Bordeaux", "region": "Nouvelle-Aquitaine", "etat": null, "pays": "France", "lien": "https://www.opera-bordeaux.com/", "action": "Production", "latitude": "44.842395", "longitude": "-0.574745"}, {"nom": "Op\u00e9ra National de Bordeaux", "nom_projet": "INTO THE WOODS", "saison": "24-25", "date": null, "type_cooperation": "Coproduction", "prospect": "oui", "carte": "oui", "adresse": "Place de la com\u00e9die", "complement_adresse": "BP 90095", "code_postal": "33025", "ville": "Bordeaux", "region": "Nouvelle-Aquitaine", "etat": null, "pays": "France", "lien": "https://www.opera-bordeaux.com/", "action": "Production", "latitude": "44.842395", "longitude": "-0.574745"}, {"nom": "Orchestre National de Lyon", "nom_projet": "TRANSFIGUR\u00c9 12 VIES DE SCH\u00d6NBERG", "saison": "23-24", "date": "9-11 janvier 2024", "type_cooperation": "Coproduction", "prospect": "non", "carte": "oui", "adresse": "84, rue de Bonnel", "complement_adresse": null, "code_postal": "69431", "ville": "Lyon", "region": "Auvergne-Rh\u00f4ne-Alpes", "etat": null, "pays": "France", "lien": "https://www.auditorium-lyon.com/", "action": "Production", "latitude": "45.762085", "longitude": "4.852656"}, {"nom": "Philharmonie Luxembourg", "nom_projet": "NOTRE SACRE ", "saison": null, "date": null, "type_cooperation": "Coproduction", "prospect": "oui", "carte": "oui", "adresse": "1, place de l\u2019Europe", "complement_adresse": null, "code_postal": "L-1499", "ville": "Luxembourg", "region": null, "etat": null, "pays": "Luxembourg", "lien": "https://www.philharmonie.lu/", "action": "Production", "latitude": "49.6178118", "longitude": "6.1429936"}, {"nom": "STAATSOPER BERLIN", "nom_projet": "MITTWOCH", "saison": "25-26", "date": null, "type_cooperation": "Coproduction", "prospect": "oui", "carte": "oui", "adresse": "Unter den Linden 7", "complement_adresse": null, "code_postal": null, "ville": "Berlin", "region": null, "etat": null, "pays": "Allemagne", "lien": "https://www.staatsoper-berlin.de/", "action": "Production", "latitude": "52.516702949999996", "longitude": "13.394738342259679"}, {"nom": "Tandem Sc\u00e8ne Nationale ", "nom_projet": "CARNETS DE L\u00c0-BAS", "saison": "23-24", "date": "16/04/2024 00:00:00", "type_cooperation": "Coproduction", "prospect": "non", "carte": "oui", "adresse": "7, Place du Th\u00e9\u00e2tre", "complement_adresse": null, "code_postal": "62000", "ville": "Arras", "region": "Hauts-de-France", "etat": null, "pays": "France", "lien": "https://www.tandem-arrasdouai.eu/", "action": "Production", "latitude": "50.290395", "longitude": "2.77342"}, {"nom": "Teatro Col\u00f3n", "nom_projet": "RESURRECTION", "saison": "23-24", "date": "7-12 mars 2023", "type_cooperation": "Diffusion", "prospect": "non", "carte": "oui", "adresse": "Cerrito 628", "complement_adresse": null, "code_postal": "C1010AAN", "ville": "Buenos Aires", "region": null, "etat": null, "pays": "Argentine", "lien": "https://teatrocolon.org.ar/", "action": "Production", "latitude": null, "longitude": null}, {"nom": "Teatro Col\u00f3n", "nom_projet": "TRANSFIGUR\u00c9 12 VIES DE SCH\u00d6NBERG", "saison": null, "date": null, "type_cooperation": "Coproduction", "prospect": "oui", "carte": "oui", "adresse": "Cerrito 628", "complement_adresse": null, "code_postal": "C1010AAN", "ville": "Buenos Aires", "region": null, "etat": null, "pays": "Argentine", "lien": "https://teatrocolon.org.ar/", "action": "Production", "latitude": null, "longitude": null}, {"nom": "Teatro Mayor Julio Mario Santo Domingo", "nom_projet": "NOTRE SACRE ", "saison": null, "date": null, "type_cooperation": "Coproduction", "prospect": "oui", "carte": "oui", "adresse": "Calle 170 # 67-51", "complement_adresse": null, "code_postal": null, "ville": "Bogot\u00e1", "region": null, "etat": null, "pays": "Colombie", "lien": "https://www.teatromayor.org/", "action": "Production", "latitude": "40.812175", "longitude": "-81.32426"}, {"nom": "Teatro Real", "nom_projet": "INTO THE WOODS", "saison": "24-25", "date": null, "type_cooperation": null, "prospect": "oui", "carte": "oui", "adresse": "Plaza de Isabel II, s/n", "complement_adresse": null, "code_postal": "28013", "ville": "Madrid", "region": null, "etat": null, "pays": "Espagne", "lien": "https://www.teatroreal.es/", "action": "Production", "latitude": null, "longitude": null}, {"nom": "Th\u00e9\u00e2tre de Caen", "nom_projet": "NOTRE SACRE ", "saison": "24-25", "date": null, "type_cooperation": "Diffusion", "prospect": "oui", "carte": "oui", "adresse": "135 Bd Mar\u00e9chal Leclerc", "complement_adresse": null, "code_postal": "14000", "ville": "Caen", "region": "Normandie", "etat": null, "pays": "France", "lien": "https://theatre.caen.fr/", "action": "Production", "latitude": "49.183212", "longitude": "-0.361447"}, {"nom": "Th\u00e9\u00e2tres Aix-en-Provence", "nom_projet": "TRANSFIGUR\u00c9 12 VIES DE SCH\u00d6NBERG", "saison": null, "date": null, "type_cooperation": "Diffusion", "prospect": "non", "carte": "oui", "adresse": null, "complement_adresse": null, "code_postal": null, "ville": "Aix-en-Provence", "region": "Provence-Alpes-C\u00f4te d'Azur", "etat": null, "pays": "France", "lien": null, "action": "Production", "latitude": "43.523201", "longitude": "5.448819"}, {"nom": "Th\u00e9\u00e2tres Aix-en-Provence", "nom_projet": "RESURRECTION", "saison": "24-25", "date": "NOV 2024", "type_cooperation": "Coproduction", "prospect": "non", "carte": "oui", "adresse": null, "complement_adresse": null, "code_postal": null, "ville": "Aix-en-Provence", "region": "Provence-Alpes-C\u00f4te d'Azur", "etat": null, "pays": "France", "lien": null, "action": "Production", "latitude": "43.523201", "longitude": "5.448819"}, {"nom": "Wroclaw Philharmonic Orchestra (NFM)", "nom_projet": "TRANSFIGUR\u00c9 12 VIES DE SCH\u00d6NBERG", "saison": null, "date": null, "type_cooperation": "Diffusion", "prospect": "oui", "carte": "oui", "adresse": null, "complement_adresse": null, "code_postal": null, "ville": "Wroclaw", "region": null, "etat": null, "pays": "Pologne", "lien": "https://www.nfm.wroclaw.pl/", "action": "Production", "latitude": "51.1089776", "longitude": "17.0326689"}, {"nom": "Wroclaw Philharmonic Orchestra (NFM)", "nom_projet": "TRILOGIE COCTEAU PHILIP GLASS", "saison": null, "date": null, "type_cooperation": "Diffusion", "prospect": "oui", "carte": "oui", "adresse": null, "complement_adresse": null, "code_postal": null, "ville": "Wroclaw", "region": null, "etat": null, "pays": "Pologne", "lien": "https://www.nfm.wroclaw.pl/", "action": "Production", "latitude": "51.1089776", "longitude": "17.0326689"}, {"nom": "OSM", "nom_projet": null, "saison": null, "date": null, "type_cooperation": null, "prospect": "non", "carte": "oui", "adresse": "1600, rue Saint-Urbain", "complement_adresse": null, "code_postal": "H2X 0S1", "ville": "Montr\u00e9al", "region": null, "etat": "QC", "pays": "Canada", "lien": "https://www.osm.ca/", "action": "Production", "latitude": null, "longitude": null}, {"type_orchestre": "Orchestre D\u00e9mos", "nom_orchestre": "Orchestre D\u00e9mos Lyon M\u00e9tropole Presto", "nom": "Auditorium-Orchestre national de Lyon", "ville": "Lyon", "region": "Auvergne-Rh\u00f4ne-Alpes", "pays": "France", "prospect": "non", "carte": "oui", "action": "D\u00e9mos", "latitude": "45.739067", "longitude": "4.860398"}, {"type_orchestre": "Orchestre D\u00e9mos", "nom_orchestre": "Orchestre D\u00e9mos Lyon M\u00e9tropole Vivo", "nom": "Auditorium-Orchestre national de Lyon", "ville": "Lyon", "region": "Auvergne-Rh\u00f4ne-Alpes", "pays": "France", "prospect": "non", "carte": "oui", "action": "D\u00e9mos", "latitude": "45.739067", "longitude": "4.860398"}, {"type_orchestre": "Orchestre D\u00e9mos Avanc\u00e9", "nom_orchestre": "Orchestre D\u00e9mos Montb\u00e9liard avanc\u00e9", "nom": "Conservatoire du Pays de Montb\u00e9liard", "ville": "Montb\u00e9liard", "region": "Bourgogne-Franche-Comt\u00e9", "pays": "France", "prospect": "non", "carte": "oui", "action": "D\u00e9mos", "latitude": "47.509346", "longitude": "6.79333"}, {"type_orchestre": "Orchestre D\u00e9mos", "nom_orchestre": "Orchestre D\u00e9mos Brest", "nom": "Conservatoire \u00e0 Rayonnement R\u00e9gional de Brest M\u00e9tropole", "ville": "Brest", "region": "Bretagne", "pays": "France", "prospect": "non", "carte": "oui", "action": "D\u00e9mos", "latitude": "48.38289", "longitude": "-4.518047"}, {"type_orchestre": "Orchestre D\u00e9mos Avanc\u00e9", "nom_orchestre": "Orchestre D\u00e9mos Brest avanc\u00e9", "nom": "Conservatoire \u00e0 Rayonnement R\u00e9gional de Brest M\u00e9tropole", "ville": "Brest", "region": "Bretagne", "pays": "France", "prospect": "non", "carte": "oui", "action": "D\u00e9mos", "latitude": "48.38289", "longitude": "-4.518047"}, {"type_orchestre": "Orchestre D\u00e9mos", "nom_orchestre": "Orchestre D\u00e9mos Kreiz Breizh", "nom": "Communaut\u00e9 de communes du Kreiz Breizh", "ville": "Rostrenen", "region": "Bretagne", "pays": "France", "prospect": "non", "carte": "oui", "action": "D\u00e9mos", "latitude": "48.19744", "longitude": "-3.306606"}, {"type_orchestre": "Orchestre D\u00e9mos Avanc\u00e9", "nom_orchestre": "Orchestre D\u00e9mos Kreiz Breizh avanc\u00e9", "nom": "Communaut\u00e9 de communes du Kreiz Breizh", "ville": "Rostrenen", "region": "Bretagne", "pays": "France", "prospect": "non", "carte": "oui", "action": "D\u00e9mos", "latitude": "48.19744", "longitude": "-3.306606"}, {"type_orchestre": "Orchestre D\u00e9mos", "nom_orchestre": "Orchestre D\u00e9mos Orl\u00e9ans Val de Loire", "nom": "Ville d'Orl\u00e9ans", "ville": "Orl\u00e9ans", "region": "Centre-Val de Loire", "pays": "France", "prospect": "non", "carte": "oui", "action": "D\u00e9mos", "latitude": "47.88648", "longitude": "1.900981"}, {"type_orchestre": "Orchestre D\u00e9mos", "nom_orchestre": "Orchestre D\u00e9mos Grand Verdun", "nom": "Communaut\u00e9 d'agglom\u00e9ration du Grand Verdun", "ville": "Verdun", "region": "Grand Est", "pays": "France", "prospect": "non", "carte": "oui", "action": "D\u00e9mos", "latitude": "49.161285", "longitude": "5.378413"}, {"type_orchestre": "Orchestre D\u00e9mos", "nom_orchestre": "Orchestre D\u00e9mos Metz Moselle Est", "nom": "Orchestre national de Metz \u2013 Cit\u00e9 musicale de Metz", "ville": "Metz", "region": "Grand Est", "pays": "France", "prospect": "non", "carte": "oui", "action": "D\u00e9mos", "latitude": "49.099603", "longitude": "6.199416"}, {"type_orchestre": "Orchestre D\u00e9mos", "nom_orchestre": "Orchestre D\u00e9mos Metz Moselle Nord", "nom": "Orchestre national de Metz \u2013 Cit\u00e9 musicale de Metz", "ville": "Metz", "region": "Grand Est", "pays": "France", "prospect": "non", "carte": "oui", "action": "D\u00e9mos", "latitude": "49.099603", "longitude": "6.199416"}, {"type_orchestre": "Orchestre D\u00e9mos", "nom_orchestre": "Orchestre D\u00e9mos Strasbourg", "nom": "Conservatoire de Strasbourg ", "ville": "Strasbourg", "region": "Grand Est", "pays": "France", "prospect": "non", "carte": "oui", "action": "D\u00e9mos", "latitude": "48.592109", "longitude": "7.739841"}, {"type_orchestre": "Orchestre D\u00e9mos Avanc\u00e9", "nom_orchestre": "Orchestre D\u00e9mos Mulhouse-Conservatoire", "nom": "Conservatoire de musique, de danse et art dramatique de Mulhouse", "ville": "Mulhouse", "region": "Grand Est", "pays": "France", "prospect": "non", "carte": "oui", "action": "D\u00e9mos", "latitude": "47.747747", "longitude": "7.334495"}, {"type_orchestre": "Orchestre D\u00e9mos", "nom_orchestre": "Orchestre D\u00e9mos Aisne Thi\u00e9rache du Centre", "nom": "ADAMA", "ville": "La Capelle", "region": "Hauts-de-France", "pays": "France", "prospect": "non", "carte": "oui", "action": "D\u00e9mos", "latitude": "50.392833", "longitude": "3.127944"}, {"type_orchestre": "Orchestre D\u00e9mos", "nom_orchestre": "Orchestre D\u00e9mos en Beauvaisis", "nom": "Conservatoire Eustache-du-Caurroy de Beauvais", "ville": "Beauvais", "region": "Hauts-de-France", "pays": "France", "prospect": "non", "carte": "oui", "action": "D\u00e9mos", "latitude": "49.437074", "longitude": "2.098849"}, {"type_orchestre": "Orchestre D\u00e9mos", "nom_orchestre": "Orchestre D\u00e9mos Val de Sambre", "nom": "Communaut\u00e9 d'agglom\u00e9ration Maubeuge - Val de Sambre", "ville": "Maubeuge", "region": "Hauts-de-France", "pays": "France", "prospect": "non", "carte": "oui", "action": "D\u00e9mos", "latitude": "50.274614", "longitude": "3.972468"}, {"type_orchestre": "Orchestre D\u00e9mos Avanc\u00e9", "nom_orchestre": "Orchestre M\u00e9tropolitain des Jeunes", "nom": "Orchestre National de Lille", "ville": "Lille", "region": "Hauts-de-France", "pays": "France", "prospect": "non", "carte": "oui", "action": "D\u00e9mos", "latitude": "50.449199", "longitude": "2.867721"}, {"type_orchestre": "Orchestre D\u00e9mos", "nom_orchestre": "Orchestre D\u00e9mos Caen la mer", "nom": "Conservatoire & Orchestre de Caen", "ville": "Caen", "region": "Normandie", "pays": "France", "prospect": "non", "carte": "oui", "action": "D\u00e9mos", "latitude": "49.179365", "longitude": "-0.400642"}, {"type_orchestre": "Orchestre D\u00e9mos", "nom_orchestre": "Orchestre D\u00e9mos \u00c9cole Harmonique Rouen", "nom": "Le Po\u00e8me Harmonique", "ville": "Rouen", "region": "Normandie", "pays": "France", "prospect": "non", "carte": "oui", "action": "D\u00e9mos", "latitude": "49.438837", "longitude": "1.061489"}, {"type_orchestre": "Orchestre D\u00e9mos", "nom_orchestre": "Orchestre D\u00e9mos Thouarsais", "nom": "Conservatoire de Musique et de Danse du Thouarsais", "ville": "Thouars", "region": "Nouvelle-Aquitaine", "pays": "France", "prospect": "non", "carte": "oui", "action": "D\u00e9mos", "latitude": "46.983167", "longitude": "-0.209671"}, {"type_orchestre": "Orchestre D\u00e9mos Avanc\u00e9", "nom_orchestre": "Orchestre Symphonique des Jeunes Thouarsais", "nom": "Conservatoire de Musique et de Danse du Thouarsais", "ville": "Thouars", "region": "Nouvelle-Aquitaine", "pays": "France", "prospect": "non", "carte": "oui", "action": "D\u00e9mos", "latitude": "46.983167", "longitude": "-0.209671"}, {"type_orchestre": "Orchestre D\u00e9mos", "nom_orchestre": "Orchestre D\u00e9mos Bordeaux M\u00e9tropole Gironde", "nom": "Op\u00e9ra National de Bordeaux", "ville": "Bordeaux", "region": "Nouvelle-Aquitaine", "pays": "France", "prospect": "non", "carte": "oui", "action": "D\u00e9mos", "latitude": "44.83476", "longitude": "-0.584284"}, {"type_orchestre": "Orchestre D\u00e9mos", "nom_orchestre": "Orchestre D\u00e9mos Montpellier 3M", "nom": "Cit\u00e9 des Arts - danse, musique, th\u00e9\u00e2tre / Conservatoire \u00e0 Rayonnement R\u00e9gional de Montpellier 3M", "ville": "Montpellier", "region": "Occitanie", "pays": "France", "prospect": "non", "carte": "oui", "action": "D\u00e9mos", "latitude": "43.617993", "longitude": "3.876906"}, {"type_orchestre": "Orchestre D\u00e9mos", "nom_orchestre": "Orchestre D\u00e9mos Toulouse M\u00e9tropole D\u00e9partement de la Haute-Garonne", "nom": "Orchestre national du Capitole de Toulouse", "ville": "Toulouse", "region": "Occitanie", "pays": "France", "prospect": "non", "carte": "oui", "action": "D\u00e9mos", "latitude": "43.606002", "longitude": "1.438644"}, {"type_orchestre": "Orchestre D\u00e9mos", "nom_orchestre": "Orchestre D\u00e9mos Nord R\u00e9union", "nom": "Cit\u00e9 des Arts - SPL Territo'Arts", "ville": "\u00a0", "region": "R\u00e9union", "pays": "France", "prospect": "non", "carte": "oui", "action": "D\u00e9mos", "latitude": "49.914947", "longitude": "2.24707"}, {"type_orchestre": "Orchestre D\u00e9mos", "nom_orchestre": "Orchestre D\u00e9mos Mayotte", "nom": "\u00a0", "ville": "\u00a0", "region": "Mayotte", "pays": "France", "prospect": "non", "carte": "oui", "action": "D\u00e9mos", "latitude": "48.681836", "longitude": "2.201261"}, {"type_orchestre": "Orchestre D\u00e9mos", "nom_orchestre": "Orchestre D\u00e9mos Guadeloupe Cap Excellence", "nom": "Communaut\u00e9 d'agglom\u00e9ration Cap Excellence", "ville": "\u00a0", "region": "Guadeloupe", "pays": "France", "prospect": "non", "carte": "oui", "action": "D\u00e9mos", "latitude": "48.890694", "longitude": "2.362245"}, {"type_orchestre": "Orchestre D\u00e9mos Avanc\u00e9", "nom_orchestre": "Orchestre D\u00e9mos Excellence Guadeloupe", "nom": "Communaut\u00e9 d'agglom\u00e9ration Cap Excellence", "ville": "\u00a0", "region": "Guadeloupe", "pays": "France", "prospect": "non", "carte": "oui", "action": "D\u00e9mos", "latitude": "48.890694", "longitude": "2.362245"}, {"type_orchestre": "Orchestre D\u00e9mos", "nom_orchestre": "Orchestre D\u00e9mos Angers", "nom": "Ville d'Angers", "ville": "Angers", "region": "Pays de la Loire", "pays": "France", "prospect": "non", "carte": "oui", "action": "D\u00e9mos", "latitude": "47.473181", "longitude": "-0.545766"}, {"type_orchestre": "Orchestre D\u00e9mos Avanc\u00e9", "nom_orchestre": "Orchestre D\u00e9mos Angers avanc\u00e9", "nom": "Ville d'Angers", "ville": "Angers", "region": "Pays de la Loire", "pays": "France", "prospect": "non", "carte": "oui", "action": "D\u00e9mos", "latitude": "47.473181", "longitude": "-0.545766"}, {"type_orchestre": "Orchestre D\u00e9mos", "nom_orchestre": "Orchestre D\u00e9mos Avignon-Provence", "nom": "Orchestre national Avignon-Provence", "ville": "Avignon", "region": "Provence-Alpes-C\u00f4te d'Azur", "pays": "France", "prospect": "non", "carte": "oui", "action": "D\u00e9mos", "latitude": "43.926755", "longitude": "4.80379"}, {"type_orchestre": "Orchestre D\u00e9mos", "nom_orchestre": "Orchestre D\u00e9mos Marseille", "nom": "Conservatoire National \u00e0 Rayonnement R\u00e9gional Pierre Barbizet de Marseille", "ville": "Marseille", "region": "Provence-Alpes-C\u00f4te d'Azur", "pays": "France", "prospect": "non", "carte": "oui", "action": "D\u00e9mos", "latitude": "43.30081", "longitude": "5.376746"}, {"type_orchestre": "Orchestre D\u00e9mos", "nom_orchestre": "Orchestre D\u00e9mos Nord Essonne", "nom": "Op\u00e9ra de Massy", "ville": "Massy", "region": "\u00cele-de-France", "pays": "France", "prospect": "non", "carte": "oui", "action": "D\u00e9mos", "latitude": "48.732221", "longitude": "2.289239"}, {"type_orchestre": "Orchestre D\u00e9mos", "nom_orchestre": "Orchestre D\u00e9mos Hauts-de-Seine", "nom": "Conseil d\u00e9partemental des Hauts-de-Seine", "ville": "Nanterre", "region": "\u00cele-de-France", "pays": "France", "prospect": "non", "carte": "oui", "action": "D\u00e9mos", "latitude": "48.900436", "longitude": "2.21619"}, {"type_orchestre": "Orchestre D\u00e9mos", "nom_orchestre": "Orchestre D\u00e9mos Parisii - Val d'Oise", "nom": "Conservatoire Jacqueline-Robin de Taverny", "ville": "Cergy-Pontoise", "region": "\u00cele-de-France", "pays": "France", "prospect": "non", "carte": "oui", "action": "D\u00e9mos", "latitude": "49.042101", "longitude": "2.061359"}, {"type_orchestre": "Orchestre D\u00e9mos", "nom_orchestre": "Orchestre D\u00e9mos Roissy Pays de France", "nom": "Agglom\u00e9ration Roissy Pays de France", "ville": "Roissy", "region": "\u00cele-de-France", "pays": "France", "prospect": "non", "carte": "oui", "action": "D\u00e9mos", "latitude": "49.004356", "longitude": "2.515921"}, {"type_orchestre": "Orchestre D\u00e9mos Avanc\u00e9", "nom_orchestre": "Orchestre D\u00e9mos Roissy Pays de France avanc\u00e9", "nom": "Agglom\u00e9ration Roissy Pays de France", "ville": "Roissy", "region": "\u00cele-de-France", "pays": "France", "prospect": "non", "carte": "oui", "action": "D\u00e9mos", "latitude": "49.004356", "longitude": "2.515921"}, {"type_orchestre": "Orchestre D\u00e9mos", "nom_orchestre": "Orchestre D\u00e9mos Saint-Quentin-en-Yvelines", "nom": "Communaut\u00e9 d'Agglom\u00e9ration Saint-Quentin-en-Yvelines", "ville": "Saint-Quentin-en-Yvelines", "region": "\u00cele-de-France", "pays": "France", "prospect": "non", "carte": "oui", "action": "D\u00e9mos", "latitude": "48.849448", "longitude": "2.059455"}, {"type_orchestre": "Orchestre D\u00e9mos", "nom_orchestre": "Orchestre D\u00e9mos Val d'Yerres Val de Seine", "nom": "Communaut\u00e9 d'agglom\u00e9ration Val d'Yerres Val de Seine", "ville": "Yerres", "region": "\u00cele-de-France", "pays": "France", "prospect": "non", "carte": "oui", "action": "D\u00e9mos", "latitude": "48.702967", "longitude": "2.484043"}, {"type_orchestre": "Orchestre D\u00e9mos", "nom_orchestre": "Orchestre D\u00e9mos Centre Val-de-Marne", "nom": "Cit\u00e9 de la musique - Philharmonie de Paris", "ville": "Cr\u00e9teil", "region": "\u00cele-de-France", "pays": "France", "prospect": "non", "carte": "oui", "action": "D\u00e9mos", "latitude": "48.796566", "longitude": "2.461521"}, {"type_orchestre": "Orchestre D\u00e9mos", "nom_orchestre": "Orchestre D\u00e9mos Est Ensemble", "nom": "Cit\u00e9 de la musique - Philharmonie de Paris", "ville": "Romainville", "region": "\u00cele-de-France", "pays": "France", "prospect": "non", "carte": "oui", "action": "D\u00e9mos", "latitude": "48.895268", "longitude": "2.437979"}, {"type_orchestre": "Orchestre D\u00e9mos", "nom_orchestre": "Orchestre D\u00e9mos Grand Paris Grand Est", "nom": "Cit\u00e9 de la musique - Philharmonie de Paris", "ville": "Noisy-le-Grand", "region": "\u00cele-de-France", "pays": "France", "prospect": "non", "carte": "oui", "action": "D\u00e9mos", "latitude": "48.850715", "longitude": "2.553525"}, {"type_orchestre": "Orchestre D\u00e9mos", "nom_orchestre": "Orchestre D\u00e9mos Paris", "nom": "Cit\u00e9 de la musique - Philharmonie de Paris", "ville": "Paris", "region": "\u00cele-de-France", "pays": "France", "prospect": "non", "carte": "oui", "action": "D\u00e9mos", "latitude": "48.830919", "longitude": "2.376158"}, {"type_orchestre": "Orchestre D\u00e9mos", "nom_orchestre": "Orchestre D\u00e9mos Plaine Commune", "nom": "Cit\u00e9 de la musique - Philharmonie de Paris", "ville": "Saint-Denis", "region": "\u00cele-de-France", "pays": "France", "prospect": "non", "carte": "oui", "action": "D\u00e9mos", "latitude": "48.921347", "longitude": "2.361122"}, {"type_orchestre": "Orchestre D\u00e9mos Avanc\u00e9", "nom_orchestre": "Orchestre D\u00e9mos Philharmonie de Paris", "nom": "Cit\u00e9 de la musique - Philharmonie de Paris", "ville": "Paris", "region": "\u00cele-de-France", "pays": "France", "prospect": "non", "carte": "oui", "action": "D\u00e9mos", "latitude": "48.830919", "longitude": "2.376158"}, {"type_orchestre": "Orchestre D\u00e9mos Avanc\u00e9", "nom_orchestre": "Orchestre D\u00e9mos - Orchestre de Paris", "nom": "Cit\u00e9 de la musique - Philharmonie de Paris", "ville": "Paris", "region": "\u00cele-de-France", "pays": "France", "prospect": "non", "carte": "oui", "action": "D\u00e9mos", "latitude": "48.830919", "longitude": "2.376158"}, {"type_orchestre": "Orchestre labellis\u00e9 r\u00e9seau D\u00e9mos", "nom_orchestre": "Orchestre Tempo R\u00e9seau D\u00e9mos", "nom": "Conservatoire \u00e0 rayonnement d\u00e9partemental de Saint-Quentin", "ville": "Saint-Quentin", "region": "Hauts-de-France", "pays": "France", "prospect": "non", "carte": "oui", "action": "D\u00e9mos", "latitude": "49.754003", "longitude": "3.067969"}, {"type_orchestre": null, "nom_orchestre": "Orchestre D\u00e9mos Abu Dhabi", "nom": "Department of Culture and Tourism", "ville": "Abu Dhabi", "region": null, "pays": "Emirats arabes unis", "prospect": "non", "carte": "oui", "action": "D\u00e9mos", "latitude": "24.4538352", "longitude": "54.3774014"}, {"type_orchestre": null, "nom_orchestre": "Projet ACC\u00c8S Culture", "nom": "Olia Lima Music School", "ville": "Yaound\u00e9", "region": null, "pays": "Cameroun", "prospect": "non", "carte": "oui", "action": "D\u00e9mos", "latitude": "3.8689867", "longitude": "11.5213344"}, {"type_orchestre": null, "nom_orchestre": "Projet Guri", "nom": "Santa Marcelina Cultura", "ville": "Sao Paulo", "region": null, "pays": "Br\u00e9sil", "prospect": "non", "carte": "oui", "action": "D\u00e9mos", "latitude": "-23.5506507", "longitude": "-46.6333824"}, {"type_orchestre": null, "nom_orchestre": "Orchestre D\u00e9mos Liban (pr\u00e9figuration)", "nom": "CMA-CGM et le Minist\u00e8re de la Culture", "ville": "Beyrouth", "region": null, "pays": "Liban", "prospect": "oui", "carte": "oui", "action": "D\u00e9mos", "latitude": "33.8959203", "longitude": "35.47843"}, {"type_orchestre": null, "nom_orchestre": "Projet Beit al musica", "nom": "Cit\u00e9 de la musique - Philharmonie de Paris, \u00c9cole Beit al musica conservatory, Ambassade de France", "ville": "Shefa'amr", "region": null, "pays": "Isra\u00ebl", "prospect": "oui", "carte": "oui", "action": "D\u00e9mos", "latitude": "32.80634565", "longitude": "35.17125429500656"}, {"nom_expo": "R\u00e9volutions Xenakis", "nom_expo_distance": "Iannis Xenakis - Sonic odysseys", "nom": "National Museum of Contemporary Art Athens", "adresse": "Kallirrois Avenue & Amvr. Frantzi Str", "complement_adresse": null, "code_postal": null, "ville": "Ath\u00e8nes", "region": null, "etat": null, "pays": "Gr\u00e8ce", "lien": "https://www.emst.gr/en/", "date": "29/06/2023 00:00:00", "date_fin": "07/01/2023 00:00:00", "type_cooperation": "Itin\u00e9rance  ", "prospect": "non", "carte": "oui", "action": "Expositions", "latitude": null, "longitude": null}, {"nom_expo": "FELA ANIKULAPO-KUTI\nR\u00e9bellion afrobeat", "nom_expo_distance": null, "nom": "180 The Strand", "adresse": "180 Strand, Temple", "complement_adresse": null, "code_postal": null, "ville": "Londres", "region": null, "etat": null, "pays": "Royaume-Uni", "lien": "https://www.180studios.com/", "date": "01/10/2024 00:00:00", "date_fin": null, "type_cooperation": "Itin\u00e9rance  ", "prospect": "oui", "carte": "oui", "action": "Expositions", "latitude": null, "longitude": null}, {"nom_expo": "FELA ANIKULAPO-KUTI\nR\u00e9bellion afrobeat", "nom_expo_distance": null, "nom": "Alliance Fran\u00e7aise de Lagos", "adresse": "9 Osborne Road, Ikoyi", "complement_adresse": null, "code_postal": null, "ville": "Lagos", "region": null, "etat": null, "pays": "Nig\u00e9ria", "lien": "https://www.afnigeria.org/lagos/", "date": "01/10/2025 00:00:00", "date_fin": null, "type_cooperation": "Itin\u00e9rance  ", "prospect": "non", "carte": "oui", "action": "Expositions", "latitude": "6.461165", "longitude": "3.4304387"}, {"nom_expo": "Electro, from Kraftwerk to Daft Punk", "nom_expo_distance": null, "nom": "Design Museum Den Bosch", "adresse": "De Mortel 4", "complement_adresse": null, "code_postal": null, "ville": "Bois-le-Duc", "region": null, "etat": null, "pays": "Pays-Bas", "lien": "https://designmuseum.nl/en/homepage/", "date": "2024", "date_fin": null, "type_cooperation": "Itin\u00e9rance  ", "prospect": "oui", "carte": "oui", "action": "Expositions", "latitude": "51.6857426", "longitude": "5.3041697"}, {"nom_expo": "Musicanimale", "nom_expo_distance": "NA", "nom": "Pixii Festival", "adresse": "NA", "complement_adresse": null, "code_postal": null, "ville": "La Rochelle", "region": "Nouvelle-Aquitaine", "etat": null, "pays": "France", "lien": "https://www.pixii-larochelle.fr/", "date": "19/10/2023 00:00:00", "date_fin": "22/10/2023 00:00:00", "type_cooperation": "Itin\u00e9rance", "prospect": "non", "carte": "oui", "action": "Expositions", "latitude": "46.171199", "longitude": "-1.201148"}, {"nom": "Konzerthaus", "adresse": "Lothringerstra\u00dfe 20", "complement_adresse": null, "code_postal": "1030", "ville": "Vienne", "region": null, "etat": null, "pays": "Autriche", "lien": null, "type_cooperation": "Tourn\u00e9e Orchestre de Paris", "saison": "2023-2024", "date": "Vendredi 17 novembre 2023, 19h30", "prospect": "non", "carte": "oui", "action": "OP", "latitude": "48.2006491", "longitude": "16.377612496299875"}, {"nom": "Hill Auditorium", "adresse": "Universit\u00e9 du Michigan", "complement_adresse": "881 N University Ave", "code_postal": "48109", "ville": "Ann Arbor", "region": null, "etat": "Michigan", "pays": "Etats-Unis", "lien": null, "type_cooperation": "Tourn\u00e9e Orchestre de Paris", "saison": "2023-2024", "date": "Jeudi 14 mars 2024, 19h30", "prospect": "oui", "carte": "oui", "action": "OP", "latitude": null, "longitude": null}, {"nom": "Carnegie Hall", "adresse": "881 7th Avenue", "complement_adresse": null, "code_postal": "10019", "ville": "New York", "region": null, "etat": "New York", "pays": "Etats-Unis", "lien": null, "type_cooperation": "Tourn\u00e9e Orchestre de Paris", "saison": "2023-2024", "date": "Samedi 16 mars 2024, 19h30", "prospect": "oui", "carte": "oui", "action": "OP", "latitude": null, "longitude": null}, {"nom": "Symphony Hall", "adresse": "301 Massachusetts Avenue", "complement_adresse": null, "code_postal": "2115", "ville": "Boston", "region": null, "etat": "Massachusetts", "pays": "Etats-Unis", "lien": null, "type_cooperation": "Tourn\u00e9e Orchestre de Paris", "saison": "2023-2024", "date": "Dimanche 17 mars 2024, 19h30", "prospect": "oui", "carte": "oui", "action": "OP", "latitude": null, "longitude": null}, {"nom": "Place des Arts", "adresse": "175 Rue Sainte-Catherine Ouest", "complement_adresse": null, "code_postal": "H2X 1Z8", "ville": "Montr\u00e9al", "region": null, "etat": "Qu\u00e9bec", "pays": "Canada", "lien": null, "type_cooperation": "Tourn\u00e9e Orchestre de Paris", "saison": "2023-2024", "date": "Mardi 19 mars 2024, 19h30", "prospect": "oui", "carte": "oui", "action": "OP", "latitude": null, "longitude": null}, {"nom": "Mus\u00e9e du Louvre", "adresse": "Pyramide", "complement_adresse": null, "code_postal": "75001", "ville": "Paris", "region": "\u00cele-de-France", "etat": null, "pays": "France", "lien": null, "type_cooperation": "Hors les Murs Orchestre de Paris", "saison": "2023-2024", "date": "Samedi 15 ou dimanche 16 juin 2024", "prospect": "oui", "carte": "oui", "action": "OP", "latitude": "48.863988", "longitude": "2.332252"}, {"nom": "Palais Charles V", "adresse": "Alhambra", "complement_adresse": "C. Real de la Alhambra, s/n", "code_postal": "18009", "ville": "Grenade", "region": null, "etat": null, "pays": "Espagne", "lien": null, "type_cooperation": "Tourn\u00e9e Orchestre de Paris", "saison": "2023-2024", "date": "Vendredi 28 et samedi 29 juin 2024", "prospect": "non", "carte": "oui", "action": "OP", "latitude": null, "longitude": null}, {"nom": "La Grange au Lac", "adresse": "37 Avenue des M\u00e9l\u00e8zes", "complement_adresse": null, "code_postal": "74500", "ville": "Neuvecelle", "region": "Hauts-de-France", "etat": null, "pays": "France", "lien": null, "type_cooperation": "Tourn\u00e9e Orchestre de Paris", "saison": "2023-2024", "date": "Jeudi 4 juillet 2024", "prospect": "non", "carte": "oui", "action": "OP", "latitude": "46.395105", "longitude": "6.592717"}, {"nom": "Grand Th\u00e9\u00e2tre de Provence", "adresse": "380 Avenue Max Juv\u00e9nal", "complement_adresse": null, "code_postal": "13100", "ville": "Aix-en-Provence", "region": null, "etat": null, "pays": "France", "lien": null, "type_cooperation": "Tourn\u00e9e Orchestre de Paris", "saison": "2023-2024", "date": "Samedi 13 et Dimanche 14 juillet 2024", "prospect": "non", "carte": "oui", "action": "OP", "latitude": "43.525773", "longitude": "5.442076"}, {"nom": "Royal Albert Hall", "adresse": "Kensington Gore, South Kensington", "complement_adresse": null, "code_postal": "SW7 2AP", "ville": "Londres", "region": null, "etat": null, "pays": "Royaume-Uni", "lien": null, "type_cooperation": "Tourn\u00e9e Orchestre de Paris", "saison": "2024-2025", "date": "Mardi 3 septembre 2024", "prospect": "oui", "carte": "oui", "action": "OP", "latitude": null, "longitude": null}, {"nom": "Lucerne Festival", "adresse": null, "complement_adresse": null, "code_postal": null, "ville": "Lucerne", "region": null, "etat": null, "pays": "Suisse", "lien": null, "type_cooperation": "Tourn\u00e9e Orchestre de Paris", "saison": "2024-2025", "date": "Jeudi 5 septembre 2024", "prospect": "oui", "carte": "oui", "action": "OP", "latitude": "47.0505452", "longitude": "8.3054682"}, {"nom": "Musikverein", "adresse": null, "complement_adresse": null, "code_postal": null, "ville": "Vienne", "region": null, "etat": null, "pays": "Autriche", "lien": null, "type_cooperation": "Tourn\u00e9e Orchestre de Paris", "saison": "2024-2025", "date": "Samedi 22 et dimanche 23 f\u00e9vrier 2025", "prospect": "oui", "carte": "oui", "action": "OP", "latitude": "48.2083537", "longitude": "16.3725042"}, {"nom": null, "adresse": null, "complement_adresse": null, "code_postal": null, "ville": "Hambourg", "region": null, "etat": null, "pays": "Allemagne", "lien": null, "type_cooperation": "Tourn\u00e9e Orchestre de Paris", "saison": "2024-2025", "date": "Mardi 25 et Mercredi 26 f\u00e9vrier 2025", "prospect": "oui", "carte": "oui", "action": "OP", "latitude": "53.550341", "longitude": "10.000654"}, {"nom": null, "adresse": null, "complement_adresse": null, "code_postal": null, "ville": "Baden Baden", "region": null, "etat": null, "pays": "Allemagne", "lien": null, "type_cooperation": "Tourn\u00e9e Orchestre de Paris", "saison": "2024-2025", "date": "Vendredi 28 f\u00e9vrier 2025", "prospect": "oui", "carte": "oui", "action": "OP", "latitude": "48.7580777", "longitude": "8.2415239"}, {"nom": "Philharmonic Essen", "adresse": "Huyssenallee 53", "complement_adresse": null, "code_postal": "45128", "ville": "Essen", "region": null, "etat": null, "pays": "Allemagne", "lien": null, "type_cooperation": "Tourn\u00e9e Orchestre de Paris", "saison": "2024-2025", "date": "Samedi 1er mars 2025", "prospect": "oui", "carte": "oui", "action": "OP", "latitude": "51.4458378", "longitude": "7.0105753"}, {"nom": null, "adresse": null, "complement_adresse": null, "code_postal": null, "ville": "Bruxelles", "region": null, "etat": null, "pays": "Belgique", "lien": null, "type_cooperation": "Tourn\u00e9e Orchestre de Paris", "saison": "2024-2025", "date": "Lundi 3 mars 2025", "prospect": "oui", "carte": "oui", "action": "OP", "latitude": "50.8465573", "longitude": "4.351697"}, {"nom": null, "adresse": null, "complement_adresse": null, "code_postal": null, "ville": "Amsterdam", "region": null, "etat": null, "pays": "Pays-Bas", "lien": null, "type_cooperation": "Tourn\u00e9e Orchestre de Paris", "saison": "2024-2025", "date": "Mardi 4 mars 2025", "prospect": "oui", "carte": "oui", "action": "OP", "latitude": "52.3727598", "longitude": "4.8936041"}, {"nom": "K\u00f6lner Philharmonie", "adresse": "Bischofsgartenstra\u00dfe 1", "complement_adresse": null, "code_postal": "50667", "ville": "Cologne", "region": null, "etat": null, "pays": "Allemagne", "lien": null, "type_cooperation": "Tourn\u00e9e Orchestre de Paris", "saison": "2024-2025", "date": "Jeudi 6 mars 2025", "prospect": "oui", "carte": "oui", "action": "OP", "latitude": "50.9406158", "longitude": "6.960824"}, {"nom": "Alte Oper Frankfurt", "adresse": "Opernpl. 1", "complement_adresse": null, "code_postal": "60313", "ville": "Francfort", "region": null, "etat": null, "pays": "Allemagne", "lien": null, "type_cooperation": "Tourn\u00e9e Orchestre de Paris", "saison": "2024-2025", "date": "Vendredi 7 mars 2025", "prospect": "oui", "carte": "oui", "action": "OP", "latitude": null, "longitude": null}, {"nom": "Lotte Concert Hall", "adresse": null, "complement_adresse": null, "code_postal": null, "ville": "S\u00e9oul", "region": null, "etat": null, "pays": "Cor\u00e9e du Sud", "lien": null, "type_cooperation": "Tourn\u00e9e Orchestre de Paris", "saison": "2024-2025", "date": "Mardi 10 et mercredi 11 juin 2025", "prospect": "oui", "carte": "oui", "action": "OP", "latitude": "37.5666791", "longitude": "126.9782914"}, {"nom": "??", "adresse": null, "complement_adresse": null, "code_postal": null, "ville": "??", "region": null, "etat": null, "pays": "Cor\u00e9e du Sud", "lien": null, "type_cooperation": "Tourn\u00e9e Orchestre de Paris", "saison": "2024-2025", "date": "Vendredi 13 et samedi 14 juin 2025", "prospect": "oui", "carte": "oui", "action": "OP", "latitude": "36.638392", "longitude": "127.6961188"}, {"nom": "S\u00e9oul Art Center", "adresse": null, "complement_adresse": null, "code_postal": null, "ville": "S\u00e9oul", "region": null, "etat": null, "pays": "Cor\u00e9e du Sud", "lien": null, "type_cooperation": "Tourn\u00e9e Orchestre de Paris", "saison": "2024-2025", "date": "Dimanche 15 juin 2025", "prospect": "oui", "carte": "oui", "action": "OP", "latitude": "37.5666791", "longitude": "126.9782914"}, {"nom": "??", "adresse": null, "complement_adresse": null, "code_postal": null, "ville": "??", "region": null, "etat": null, "pays": "Japon", "lien": null, "type_cooperation": "Tourn\u00e9e Orchestre de Paris", "saison": "2024-2025", "date": "Mercredi 18 juin 2025", "prospect": "oui", "carte": "oui", "action": "OP", "latitude": "36.5748441", "longitude": "139.2394179"}, {"nom": "Suntory Hall", "adresse": null, "complement_adresse": null, "code_postal": null, "ville": "Tokyo ", "region": null, "etat": null, "pays": "Japon", "lien": null, "type_cooperation": "Tourn\u00e9e Orchestre de Paris", "saison": "2024-2025", "date": "Jeudi 19 et vendredi 20 juin 2025", "prospect": "oui", "carte": "oui", "action": "OP", "latitude": "35.6828387", "longitude": "139.7594549"}, {"nom": null, "adresse": null, "complement_adresse": null, "code_postal": null, "ville": "Aix-en-Provence", "region": null, "etat": null, "pays": "France", "lien": null, "type_cooperation": "Tourn\u00e9e Orchestre de Paris", "saison": "2024-2025", "date": "01/07/2025 00:00:00", "prospect": "oui", "carte": "oui", "action": "OP", "latitude": "43.523201", "longitude": "5.448819"}, {"nom": "Palais de la Musique et des Congr\u00e8s", "adresse": "Place de Bordeaux", "complement_adresse": null, "code_postal": "67006", "ville": "Strasbourg", "region": "Grand Est", "etat": null, "pays": "France", "lien": null, "type_cooperation": "Tourn\u00e9e Choeur de l'Orchestre de Paris", "saison": "2023-2024", "date": "Mardi 4 juin 2024, 20h", "prospect": "non", "carte": "oui", "action": "OP", "latitude": "48.593483", "longitude": "7.757478"}, {"nom": "Basilique cath\u00e9drale de Saint Denis", "adresse": "1 Rue de la L\u00e9gion d'Honneur", "complement_adresse": null, "code_postal": "83200", "ville": "Saint-Denis", "region": "\u00cele-de-France", "etat": null, "pays": "France", "lien": null, "type_cooperation": "Tourn\u00e9e Choeur de l'Orchestre de Paris", "saison": "2023-2024", "date": "Mercredi 5 juin, 17h30", "prospect": "non", "carte": "oui", "action": "OP", "latitude": "48.935529", "longitude": "2.359461"}, {"nom": "Arsenal", "adresse": "3 Avenue Ney", "complement_adresse": null, "code_postal": "57000", "ville": "Metz", "region": "Grand Est", "etat": null, "pays": "France", "lien": null, "type_cooperation": "Tourn\u00e9e Choeur de l'Orchestre de Paris", "saison": "2024-2025", "date": "Fevrier 2025", "prospect": "oui", "carte": "oui", "action": "OP", "latitude": "49.114513", "longitude": "6.170881"}, {"nom": "Palais de la Musique et des Congr\u00e8s", "adresse": "Place de Bordeaux", "complement_adresse": null, "code_postal": "67006", "ville": "Strasbourg", "region": "Grand Est", "etat": null, "pays": "France", "lien": null, "type_cooperation": "Tourn\u00e9e Choeur de l'Orchestre de Paris", "saison": "2024-2025", "date": "01/03/2025 00:00:00", "prospect": "oui", "carte": "oui", "action": "OP", "latitude": "48.593483", "longitude": "7.757478"}, {"nom": "Concertgebouw", "adresse": "Concertgebouwplein 10", "complement_adresse": null, "code_postal": "1071", "ville": "Amsterdam", "region": null, "etat": null, "pays": "Pays-Bas", "lien": null, "type_cooperation": "Tourn\u00e9e Choeur de l'Orchestre de Paris", "saison": "2024-2025", "date": "01/05/2025 00:00:00", "prospect": "non", "carte": "oui", "action": "OP", "latitude": "52.356192", "longitude": "4.8799515"}, {"nom": "Louvre, Galerie Lebrun", "adresse": null, "complement_adresse": null, "code_postal": "75001", "ville": "Paris", "region": "\u00cele-de-France", "etat": null, "pays": "France", "lien": null, "type_cooperation": "Musique de Chambre OP - Hors Les Murs ", "saison": "2023-2024", "date": "Samedi 2 mars 2024", "prospect": "oui", "carte": "oui", "action": "OP", "latitude": "48.858969", "longitude": "2.341725"}, {"nom": "Louvre, Auditorium", "adresse": null, "complement_adresse": null, "code_postal": "75001", "ville": "Paris", "region": "\u00cele-de-France", "etat": null, "pays": "France", "lien": null, "type_cooperation": "Musique de Chambre OP - Hors Les Murs ", "saison": "2023-2024", "date": "Vendredi 19, samedi 20, vendredi 26 ou samedi 27 avril 2024", "prospect": "oui", "carte": "oui", "action": "OP", "latitude": "48.858969", "longitude": "2.341725"}, {"nom": "Louvre, Salle Daru", "adresse": null, "complement_adresse": null, "code_postal": "75001", "ville": "Paris", "region": "\u00cele-de-France", "etat": null, "pays": "France", "lien": null, "type_cooperation": "Musique de Chambre OP - Hors Les Murs ", "saison": "2023-2024", "date": "Jeudi 13 juin 2024", "prospect": "oui", "carte": "oui", "action": "OP", "latitude": "48.858969", "longitude": "2.341725"}, {"nom": "H\u00f4pital Armand Trousseau AP-HP", "adresse": "26 Av. du Dr Arnold Netter", "complement_adresse": null, "code_postal": "75012", "ville": "Paris", "region": "\u00cele-de-France", "etat": null, "pays": "France", "lien": null, "type_cooperation": "Action Culturelle OP : intervention musical \u00e0 l'h\u00f4pital avec musiciens OP ", "saison": "2023-2024", "date": "Jeudi 5 octobre 2023, 14h \u00e0 16h", "prospect": "non", "carte": "oui", "action": "OP", "latitude": "48.842745", "longitude": "2.405356"}, {"nom": "Tokyo Metropolitan Th\u00e9\u00e2tre", "adresse": null, "complement_adresse": null, "code_postal": null, "ville": "Tokyo ", "region": null, "etat": null, "pays": "Japon", "lien": null, "type_cooperation": "Action culturelle OP : Acad\u00e9mie d\u2019Orchestre Geigeki avec 4 musiciens OP ", "saison": "2023-2024", "date": "du 5 au 10 novembre 2023", "prospect": "non", "carte": "oui", "action": "OP", "latitude": "35.6828387", "longitude": "139.7594549"}, {"nom": "Mairie du 18\u00e8me arrondissement de Paris", "adresse": "1 Pl. Jules Joffrin", "complement_adresse": null, "code_postal": "75018", "ville": "Paris", "region": "\u00cele-de-France", "etat": null, "pays": "France", "lien": null, "type_cooperation": "Action culturelle OP : Conte Musicale en mairie avec musiciens OP ", "saison": null, "date": "Vendredi 1er et samedi 2 d\u00e9cembre 2023", "prospect": "oui", "carte": "oui", "action": "OP", "latitude": "48.892304", "longitude": "2.344687"}, {"nom": "H\u00f4pital Armand Trousseau AP-HP", "adresse": "26 Av. du Dr Arnold Netter", "complement_adresse": null, "code_postal": "75012", "ville": "Paris", "region": "\u00cele-de-France", "etat": null, "pays": "France", "lien": null, "type_cooperation": "Action Culturelle OP : intervention musical \u00e0 l'h\u00f4pital avec musiciens OP ", "saison": "2023-2024", "date": "Jeudi 7 d\u00e9cembre 2023, 14h \u00e0 16h", "prospect": "non", "carte": "oui", "action": "OP", "latitude": "48.842745", "longitude": "2.405356"}, {"nom_projet": "Classe d\u00e9couverte", "nom": "Ville de Clichy-sous-Bois", "adresse": "H\u00f4tel de ville", "complement_adresse": "Place du 11 novembre 1918", "code_postal": "93390", "ville": "Clichy-sous-Bois", "region": "\u00cele-de-France", "etat": null, "pays": "France", "lien": null, "prospect": "non", "carte": "oui", "action": "Education", "latitude": "48.911428", "longitude": "2.546152"}, {"nom_projet": "Classe d\u00e9couverte", "nom": "Ecole \u00e9l\u00e9mentaire Paul Vaillant-Couturier", "adresse": "All\u00e9e Maurice Audin", "complement_adresse": null, "code_postal": "93390", "ville": "Clichy-sous-Bois", "region": "\u00cele-de-France", "etat": null, "pays": "France", "lien": null, "prospect": "non", "carte": "oui", "action": "Education", "latitude": "48.908691", "longitude": "2.538659"}, {"nom_projet": "Le Petit Phil", "nom": "Ville de Grigny", "adresse": "H\u00f4tel de ville", "complement_adresse": "19 Route de Corbeil", "code_postal": "91350", "ville": "Grigny", "region": "\u00cele-de-France", "etat": null, "pays": "France", "lien": null, "prospect": "non", "carte": "oui", "action": "Education", "latitude": "48.657343", "longitude": "2.385705"}, {"nom_projet": "Le Petit Phil", "nom": "Maison de la Petite enfance (Halte jeux)", "adresse": "Rue Saint-Exup\u00e9ry", "complement_adresse": null, "code_postal": "91350", "ville": "Grigny", "region": "\u00cele-de-France", "etat": null, "pays": "France", "lien": null, "prospect": "non", "carte": "oui", "action": "Education", "latitude": "48.651915", "longitude": "2.391162"}, {"nom_projet": "Le Petit Phil", "nom": "AVIP \"Premiers pas\"", "adresse": "11 Ruelle du Cur\u00e9", "complement_adresse": null, "code_postal": "91350", "ville": "Grigny", "region": "\u00cele-de-France", "etat": null, "pays": "France", "lien": null, "prospect": "non", "carte": "oui", "action": "Education", "latitude": "48.656514", "longitude": "2.390423"}, {"nom_projet": "Mati\u00e8res et sons (dispositif Art pour Grandir cr\u00e8ches)", "nom": "Ville de Paris", "adresse": "H\u00f4tel de ville", "complement_adresse": "5 Rue Lobau", "code_postal": "75004", "ville": "Paris", "region": "\u00cele-de-France", "etat": null, "pays": "France", "lien": null, "prospect": "non", "carte": "oui", "action": "Education", "latitude": "48.856586", "longitude": "2.353225"}, {"nom_projet": "Mati\u00e8res et sons (dispositif Art pour Grandir cr\u00e8ches)", "nom": "Multi-accueil (MA) Diebold", "adresse": "22 rue Laure Diebold", "complement_adresse": null, "code_postal": "75008", "ville": "Paris", "region": "\u00cele-de-France", "etat": null, "pays": "France", "lien": null, "prospect": "non", "carte": "oui", "action": "Education", "latitude": "48.876187", "longitude": "2.305299"}, {"nom_projet": "Beaux sons, beaux gestes (dispositif Art pour grandir \u00e9coles et coll\u00e8ges)", "nom": "Ville de Paris", "adresse": "H\u00f4tel de ville", "complement_adresse": "5 Rue Lobau", "code_postal": "75004", "ville": "Paris", "region": "\u00cele-de-France", "etat": null, "pays": "France", "lien": null, "prospect": "non", "carte": "oui", "action": "Education", "latitude": "48.856586", "longitude": "2.353225"}, {"nom_projet": "Beaux sons, beaux gestes (dispositif Art pour grandir \u00e9coles et coll\u00e8ges)", "nom": "Coll\u00e8ge Aim\u00e9 C\u00e9saire", "adresse": "2 Esplanade Nathalie Sarraute", "complement_adresse": null, "code_postal": "75018", "ville": "Paris", "region": "\u00cele-de-France", "etat": null, "pays": "France", "lien": null, "prospect": "non", "carte": "oui", "action": "Education", "latitude": "48.887576", "longitude": "2.36198"}, {"nom_projet": "EVE - Exister avec la voix ensemble", "nom": "Acad\u00e9mie de Paris", "adresse": "12 Boulevard d'Indochine", "complement_adresse": null, "code_postal": "75019", "ville": "Paris", "region": "\u00cele-de-France", "etat": null, "pays": "France", "lien": null, "prospect": "non", "carte": "oui", "action": "Education", "latitude": "48.884892", "longitude": "2.396992"}, {"nom_projet": "EVE - Exister avec la voix ensemble", "nom": "Acad\u00e9mie de Versailles", "adresse": "3 Boulevard de Lesseps", "complement_adresse": null, "code_postal": "78017", "ville": "Versailles", "region": "\u00cele-de-France", "etat": null, "pays": "France", "lien": null, "prospect": "non", "carte": "oui", "action": "Education", "latitude": "48.805727", "longitude": "2.146526"}, {"nom_projet": "EVE - Exister avec la voix ensemble", "nom": "Acad\u00e9mie de Cr\u00e9teil", "adresse": "4 Rue Georges Enesco", "complement_adresse": null, "code_postal": "94000", "ville": "Cr\u00e9teil", "region": "\u00cele-de-France", "etat": null, "pays": "France", "lien": null, "prospect": "non", "carte": "oui", "action": "Education", "latitude": "48.797345", "longitude": "2.446766"}, {"nom_projet": "EVE - Exister avec la voix ensemble", "nom": "Coll\u00e8ge Pierre S\u00e9mard", "adresse": "85 Rue Pierre S\u00e9mard", "complement_adresse": null, "code_postal": "93000", "ville": "Bobigny", "region": "\u00cele-de-France", "etat": null, "pays": "France", "lien": null, "prospect": "non", "carte": "oui", "action": "Education", "latitude": "48.910815", "longitude": "2.446534"}, {"nom_projet": "EVE - Exister avec la voix ensemble", "nom": "Coll\u00e8ge Ir\u00e8ne et Fr\u00e9d\u00e9ric Joliot-Curie", "adresse": "86 Avenue Jean Lolive", "complement_adresse": null, "code_postal": "93500", "ville": "Pantin", "region": "\u00cele-de-France", "etat": null, "pays": "France", "lien": null, "prospect": "non", "carte": "oui", "action": "Education", "latitude": "48.891497", "longitude": "2.405183"}, {"nom_projet": "EVE - Exister avec la voix ensemble", "nom": "Coll\u00e8ge Solveig Anspach", "adresse": "138 Boulevard Chanzy", "complement_adresse": null, "code_postal": "93100", "ville": "Montreuil", "region": "\u00cele-de-France", "etat": null, "pays": "France", "lien": null, "prospect": "non", "carte": "oui", "action": "Education", "latitude": "48.85889", "longitude": "2.427196"}, {"nom_projet": "EVE - Exister avec la voix ensemble", "nom": "Coll\u00e8ge International", "adresse": "48 Rue Gu\u00e9rin", "complement_adresse": null, "code_postal": "77300", "ville": "Fontainebleau", "region": "\u00cele-de-France", "etat": null, "pays": "France", "lien": null, "prospect": "non", "carte": "oui", "action": "Education", "latitude": "48.410351", "longitude": "2.694621"}, {"nom_projet": "EVE - Exister avec la voix ensemble", "nom": "Coll\u00e8ge Var\u00e8se", "adresse": "16 Rue Adolphe Mille", "complement_adresse": null, "code_postal": "75019", "ville": "Paris", "region": "\u00cele-de-France", "etat": null, "pays": "France", "lien": null, "prospect": "non", "carte": "oui", "action": "Education", "latitude": "48.88916", "longitude": "2.388587"}, {"nom_projet": "EVE - Exister avec la voix ensemble", "nom": "Coll\u00e8ge Lamartine", "adresse": "121 Rue du Faubourg Poissonni\u00e8re", "complement_adresse": null, "code_postal": "75009", "ville": "Paris", "region": "\u00cele-de-France", "etat": null, "pays": "France", "lien": null, "prospect": "non", "carte": "oui", "action": "Education", "latitude": "48.878381", "longitude": "2.349089"}, {"nom_projet": "EVE - Exister avec la voix ensemble", "nom": "Coll\u00e8ge Haut Mesnil", "adresse": "24 Rue Arthur Auger", "complement_adresse": null, "code_postal": "92120", "ville": "Montrouge", "region": "\u00cele-de-France", "etat": null, "pays": "France", "lien": null, "prospect": "non", "carte": "oui", "action": "Education", "latitude": "48.813969", "longitude": "2.307058"}, {"nom_projet": "EVE - Exister avec la voix ensemble", "nom": "Coll\u00e8ge Jean Moulin", "adresse": "84 Rue du Poirier Baron", "complement_adresse": null, "code_postal": "95110", "ville": "Sannois", "region": "\u00cele-de-France", "etat": null, "pays": "France", "lien": null, "prospect": "non", "carte": "oui", "action": "Education", "latitude": "48.978608", "longitude": "2.242274"}, {"nom_projet": "EVE - Exister avec la voix ensemble", "nom": "Coll\u00e8ge Pompidou", "adresse": "20 Avenue Ch\u00e2teau du Loir", "complement_adresse": null, "code_postal": "92400", "ville": "Courbevoie", "region": "\u00cele-de-France", "etat": null, "pays": "France", "lien": null, "prospect": "non", "carte": "oui", "action": "Education", "latitude": "48.900267", "longitude": "2.254329"}, {"nom_projet": "EVE - Exister avec la voix ensemble", "nom": "Coll\u00e8ge Paul Eluard", "adresse": "39 Rue des Pierrettes", "complement_adresse": null, "code_postal": "92320", "ville": "Chatillon", "region": "\u00cele-de-France", "etat": null, "pays": "France", "lien": null, "prospect": "non", "carte": "oui", "action": "Education", "latitude": "48.798402", "longitude": "2.291976"}, {"nom_projet": "EVE - Exister avec la voix ensemble", "nom": "Acad\u00e9mie de Lyon", "adresse": "92, rue de Marseille", "complement_adresse": null, "code_postal": "69007", "ville": "Lyon", "region": "Auvergne-Rh\u00f4ne-Alpes", "etat": null, "pays": "France", "lien": null, "prospect": "non", "carte": "oui", "action": "Education", "latitude": null, "longitude": null}, {"nom_projet": "EVE - Exister avec la voix ensemble", "nom": "Coll\u00e8ge Notre Dame de Bellecombe", "adresse": "31 Rue Germain", "complement_adresse": null, "code_postal": "69006", "ville": "Lyon", "region": "Auvergne-Rh\u00f4ne-Alpes", "etat": null, "pays": "France", "lien": null, "prospect": "non", "carte": "oui", "action": "Education", "latitude": null, "longitude": null}, {"nom_projet": "EVE - Exister avec la voix ensemble", "nom": "Acad\u00e9mie de Rouen", "adresse": "25 Rue de Fontenelle", "complement_adresse": null, "code_postal": "76000", "ville": "Rouen", "region": "Normandie", "etat": null, "pays": "France", "lien": null, "prospect": "non", "carte": "oui", "action": "Education", "latitude": null, "longitude": null}, {"nom_projet": "EVE - Exister avec la voix ensemble", "nom": "Coll\u00e8ge Guillaume le conqu\u00e9rant - principal", "adresse": "2 route des Bois", "complement_adresse": null, "code_postal": "76680", "ville": "Saint Sa\u00ebns", "region": "Normandie", "etat": null, "pays": "France", "lien": null, "prospect": "non", "carte": "oui", "action": "Education", "latitude": null, "longitude": null}, {"nom_projet": "EVE - Exister avec la voix ensemble", "nom": "Acad\u00e9mie de Strasbourg", "adresse": "6 Rue de la Toussaint", "complement_adresse": null, "code_postal": "67000", "ville": "Strasbourg", "region": "Grand Est", "etat": null, "pays": "France", "lien": null, "prospect": "non", "carte": "oui", "action": "Education", "latitude": null, "longitude": null}, {"nom_projet": "EVE - Exister avec la voix ensemble", "nom": "Coll\u00e8ge Louis Pasteur", "adresse": "All\u00e9e Colette Besson", "complement_adresse": null, "code_postal": "67100", "ville": "Strasbourg", "region": "Grand Est", "etat": null, "pays": "France", "lien": null, "prospect": "non", "carte": "oui", "action": "Education", "latitude": null, "longitude": null}, {"nom_projet": "Initiation musicale par le chant choral EVE", "nom": "Ville de Clichy-sous-Bois", "adresse": "H\u00f4tel de ville", "complement_adresse": "Place du 11 novembre 1918", "code_postal": "93390", "ville": "Clichy-sous-Bois", "region": "\u00cele-de-France", "etat": null, "pays": "France", "lien": null, "prospect": "non", "carte": "oui", "action": "Education", "latitude": "48.911428", "longitude": "2.546152"}, {"nom_projet": "Initiation musicale par le chant choral EVE", "nom": "\u00c9cole Paul Vaillant Couturier", "adresse": "All\u00e9e Maurice Audin", "complement_adresse": null, "code_postal": "93390", "ville": "Clichy-sous-Bois", "region": "\u00cele-de-France", "etat": null, "pays": "France", "lien": null, "prospect": "non", "carte": "oui", "action": "Education", "latitude": "48.908691", "longitude": "2.538659"}, {"nom_projet": "Studio 19", "nom": "Ville de Paris", "adresse": "Mairie du 19e", "complement_adresse": "5-7 Place Armand Carrel", "code_postal": "75019", "ville": "Paris", "region": "\u00cele-de-France", "etat": null, "pays": "France", "lien": null, "prospect": "non", "carte": "oui", "action": "Education", "latitude": "48.882873", "longitude": "2.382162"}, {"nom_projet": "Studio 19", "nom": "Ville de Grigny", "adresse": "H\u00f4tel de ville", "complement_adresse": "19 Route de Corbeil", "code_postal": "91350", "ville": "Grigny", "region": "\u00cele-de-France", "etat": null, "pays": "France", "lien": null, "prospect": "non", "carte": "oui", "action": "Education", "latitude": "48.657343", "longitude": "2.385705"}, {"nom_projet": "Studio 19", "nom": "Espace Jeunes Henri Barbuse", "adresse": "34 Rue Henri Rol-Tanguy", "complement_adresse": null, "code_postal": "91350", "ville": "Grigny", "region": "\u00cele-de-France", "etat": null, "pays": "France", "lien": null, "prospect": "non", "carte": "oui", "action": "Education", "latitude": "48.652818", "longitude": "2.388868"}, {"nom_projet": "Parcours musical et culturel : l\u2019orchestre Steelband de Trinit\u00e9-et-Tobago", "nom": "Cit\u00e9 \u00e9ducative Paris XIXe Ouest", "adresse": "Coll\u00e8ge Georges M\u00e9li\u00e8s", "complement_adresse": "45 rue de Tanger", "code_postal": "75019", "ville": "Paris", "region": "\u00cele-de-France", "etat": null, "pays": "France", "lien": null, "prospect": "non", "carte": "oui", "action": "Education", "latitude": "48.888174", "longitude": "2.370425"}, {"nom_projet": "Parcours musical et culturel : l\u2019orchestre Steelband de Trinit\u00e9-et-Tobago", "nom": "Ecole Tanger A", "adresse": "41 rue de Tanger", "complement_adresse": null, "code_postal": "75019", "ville": "Paris", "region": "\u00cele-de-France", "etat": null, "pays": "France", "lien": null, "prospect": "non", "carte": "oui", "action": "Education", "latitude": "48.887768", "longitude": "2.370236"}, {"nom_projet": "Parcours musical et culturel : l\u2019orchestre Steelband de Trinit\u00e9-et-Tobago", "nom": "Coll\u00e8ge Georges M\u00e9li\u00e8s", "adresse": "45 rue de Tanger", "complement_adresse": null, "code_postal": "75019", "ville": "Paris", "region": "\u00cele-de-France", "etat": null, "pays": "France", "lien": null, "prospect": "non", "carte": "oui", "action": "Education", "latitude": "48.888174", "longitude": "2.370425"}, {"nom_projet": "Formation m\u00e9diation CNSM", "nom": "CNSMDP", "adresse": "209 Avenue Jean Jaur\u00e8s", "complement_adresse": null, "code_postal": "75019", "ville": "Paris", "region": "\u00cele-de-France", "etat": null, "pays": "France", "lien": null, "prospect": "non", "carte": "oui", "action": "Education", "latitude": "48.888813", "longitude": "2.391923"}, {"nom_projet": "Formation gamelan CNSM", "nom": "CNSMDP", "adresse": "209 Avenue Jean Jaur\u00e8s", "complement_adresse": null, "code_postal": "75020", "ville": "Paris", "region": "\u00cele-de-France", "etat": null, "pays": "France", "lien": null, "prospect": "non", "carte": "oui", "action": "Education", "latitude": "48.862714", "longitude": "2.399804"}, {"nom_projet": "Chantons ensemble", "nom": "Ville d'Antony", "adresse": "Place de l'H\u00f4tel de ville", "complement_adresse": null, "code_postal": "92160", "ville": "Antony", "region": "\u00cele-de-France", "etat": null, "pays": "France", "lien": null, "prospect": "non", "carte": "oui", "action": "Education", "latitude": "48.753453", "longitude": "2.296556"}, {"nom_projet": "Chantons ensemble", "nom": "Centre Culturel Ousmane Sy", "adresse": "4 Boulevard des Pyr\u00e9n\u00e9es", "complement_adresse": null, "code_postal": "92160", "ville": "Antony", "region": "\u00cele-de-France", "etat": null, "pays": "France", "lien": null, "prospect": "non", "carte": "oui", "action": "Education", "latitude": "48.735808", "longitude": "2.280532"}, {"nom_projet": "Migrations (dispositif CAC)", "nom": "D\u00e9partement de Seine-Saint-Denis", "adresse": "H\u00f4tel du d\u00e9partement", "complement_adresse": "Esplanade Jean Moulin", "code_postal": "93000", "ville": "Bobigny", "region": "\u00cele-de-France", "etat": null, "pays": "France", "lien": null, "prospect": "non", "carte": "oui", "action": "Education", "latitude": "48.905672", "longitude": "2.451627"}, {"nom_projet": "Migrations (dispositif CAC)", "nom": "Coll\u00e8ge Joliot Curie", "adresse": "16 Rue Jean Chardavoine", "complement_adresse": null, "code_postal": "93240", "ville": "Stains", "region": "\u00cele-de-France", "etat": null, "pays": "France", "lien": null, "prospect": "non", "carte": "oui", "action": "Education", "latitude": "48.956476", "longitude": "2.38528"}, {"nom_projet": "Convention cadre", "nom": "Ville de Saint-Denis", "adresse": "H\u00f4tel de ville", "complement_adresse": "2 Place du Caquet", "code_postal": "93200", "ville": "Saint-Denis", "region": "\u00cele-de-France", "etat": null, "pays": "France", "lien": null, "prospect": "non", "carte": "oui", "action": "Education", "latitude": "48.937307", "longitude": "2.359795"}, {"nom_projet": "Convention cadre", "nom": "Ville de Paris", "adresse": "Mairie du 19e", "complement_adresse": "5-7 Place Armand Carrel", "code_postal": "75019", "ville": "Paris", "region": "\u00cele-de-France", "etat": null, "pays": "France", "lien": null, "prospect": "non", "carte": "oui", "action": "Education", "latitude": "48.882873", "longitude": "2.382162"}, {"nom_projet": "Convention cadre", "nom": "Ville de Grigny", "adresse": "H\u00f4tel de ville", "complement_adresse": "19 Route de Corbeil", "code_postal": "91350", "ville": "Grigny", "region": "\u00cele-de-France", "etat": null, "pays": "France", "lien": null, "prospect": "non", "carte": "oui", "action": "Education", "latitude": "48.657343", "longitude": "2.385705"}, {"nom_projet": "Convention cadre", "nom": "Ville de Clichy-sous-Bois", "adresse": "H\u00f4tel de ville", "complement_adresse": "Place du 11 novembre 1918", "code_postal": "93390", "ville": "Clichy-sous-Bois", "region": "\u00cele-de-France", "etat": null, "pays": "France", "lien": null, "prospect": "non", "carte": "oui", "action": "Education", "latitude": "48.911428", "longitude": "2.546152"}, {"nom_projet": "Convention cadre", "nom": "D\u00e9partement de Seine-Saint-Denis", "adresse": "H\u00f4tel du d\u00e9partement", "complement_adresse": "Esplanade Jean Moulin", "code_postal": "93000", "ville": "Bobigny", "region": "\u00cele-de-France", "etat": null, "pays": "France", "lien": null, "prospect": "non", "carte": "oui", "action": "Education", "latitude": "48.905672", "longitude": "2.451627"}, {"nom_projet": "Convention cadre", "nom": "R\u00e9gion Ile de France", "adresse": "2 Rue Simone Veil", "complement_adresse": null, "code_postal": "93400", "ville": "Saint-Ouen-sur-Seine", "region": "\u00cele-de-France", "etat": null, "pays": "France", "lien": null, "prospect": "non", "carte": "oui", "action": "Education", "latitude": "48.912395", "longitude": "2.331462"}, {"nom_projet": "Convention cadre", "nom": "Ville de Saint-Ouen-sur-Seine", "adresse": "H\u00f4tel de ville", "complement_adresse": "7 Place de la R\u00e9publique", "code_postal": "93400", "ville": "Saint-Ouen-sur-Seine", "region": "\u00cele-de-France", "etat": null, "pays": "France", "lien": null, "prospect": "non", "carte": "oui", "action": "Education", "latitude": "48.91253", "longitude": "2.333008"}, {"nom_projet": "Convention cadre", "nom": "Ville de Rosny-sous-Bois", "adresse": "H\u00f4tel de ville", "complement_adresse": "20 Rue Claude Pern\u00e8s", "code_postal": "93110", "ville": "Rosny-sous-Bois", "region": "\u00cele-de-France", "etat": null, "pays": "France", "lien": null, "prospect": "non", "carte": "oui", "action": "Education", "latitude": "48.872207", "longitude": "2.488287"}, {"nom_projet": "Convention cadre", "nom": "Ville du Pr\u00e9-Saint-Gervais", "adresse": "H\u00f4tel de ville", "complement_adresse": "84 Rue Andr\u00e9 Joineau", "code_postal": "93310", "ville": "Le Pr\u00e9 Saint-Gervais", "region": "\u00cele-de-France", "etat": null, "pays": "France", "lien": null, "prospect": "non", "carte": "oui", "action": "Education", "latitude": "48.883154", "longitude": "2.403244"}, {"nom_projet": "Convention cadre", "nom": "Ville de Pantin", "adresse": "H\u00f4tel de ville", "complement_adresse": "45 Avenue du G\u00e9n\u00e9ral Leclerc", "code_postal": "93500", "ville": "Pantin", "region": "\u00cele-de-France", "etat": null, "pays": "France", "lien": null, "prospect": "non", "carte": "oui", "action": "Education", "latitude": "48.896609", "longitude": "2.401161"}, {"nom_projet": "Convention cadre", "nom": "Ville de la Courneuve", "adresse": "H\u00f4tel de ville", "complement_adresse": "Avenue de la R\u00e9publique", "code_postal": "93120", "ville": "La Courneuve", "region": "\u00cele-de-France", "etat": null, "pays": "France", "lien": null, "prospect": "non", "carte": "oui", "action": "Education", "latitude": "48.928077", "longitude": "2.390535"}, {"nom_projet": "Ateliers musique de tradition orale", "nom": "Philharmonie Luxembourg", "adresse": "1 Place de l'Europe", "complement_adresse": null, "code_postal": "L-1499", "ville": "Luxembourg", "region": null, "etat": null, "pays": "Luxembourg", "lien": null, "prospect": "non", "carte": "oui", "action": "Education", "latitude": null, "longitude": null}, {"nom_projet": "Symfolia", "nom": "Acad\u00e9mie de Paris", "adresse": "12 Boulevard d'Indochine", "complement_adresse": null, "code_postal": "75019", "ville": "Paris", "region": "\u00cele-de-France", "etat": null, "pays": "France", "lien": null, "prospect": "non", "carte": "oui", "action": "Education", "latitude": "48.884892", "longitude": "2.396992"}, {"nom_projet": "Symfolia", "nom": "Acad\u00e9mie de Versailles", "adresse": "3 Boulevard de Lesseps", "complement_adresse": null, "code_postal": "78017", "ville": "Versailles", "region": "\u00cele-de-France", "etat": null, "pays": "France", "lien": null, "prospect": "non", "carte": "oui", "action": "Education", "latitude": "48.805727", "longitude": "2.146526"}, {"nom_projet": "Symfolia", "nom": "Acad\u00e9mie de Cr\u00e9teil", "adresse": "4 Rue Georges Enesco", "complement_adresse": null, "code_postal": "94000", "ville": "Cr\u00e9teil", "region": "\u00cele-de-France", "etat": null, "pays": "France", "lien": null, "prospect": "non", "carte": "oui", "action": "Education", "latitude": "48.797345", "longitude": "2.446766"}, {"nom_projet": "R\u00e9sidence Du terrain \u00e0 la sc\u00e8ne", "nom": "Ecole Cav\u00e9", "adresse": "11 Rue Cav\u00e9", "complement_adresse": null, "code_postal": "75018", "ville": "Paris", "region": "\u00cele-de-France", "etat": null, "pays": "France", "lien": null, "prospect": "non", "carte": "oui", "action": "Education", "latitude": "48.886707", "longitude": "2.355167"}, {"nom_projet": "Classes culturelles num\u00e9riques", "nom": "Mission La\u00efque Fran\u00e7aise", "adresse": "9 Rue Humblot", "complement_adresse": null, "code_postal": "75015", "ville": "Paris", "region": "\u00cele-de-France", "etat": null, "pays": "France", "lien": null, "prospect": "non", "carte": "oui", "action": "Education", "latitude": "48.851039", "longitude": "2.293643"}, {"nom_projet": "Panenka (dispositif Artistes et sportifs associ\u00e9s)", "nom": "Association sportive de Bondy", "adresse": "4 Avenue Marx Dormoy", "complement_adresse": null, "code_postal": "93140", "ville": "Bondy", "region": "\u00cele-de-France", "etat": null, "pays": "France", "lien": null, "prospect": "non", "carte": "oui", "action": "Education", "latitude": "48.911718", "longitude": "2.482752"}, {"nom_projet": "Panenka (dispositif Artistes et sportifs associ\u00e9s)", "nom": "D\u00e9partemental de Seine-Saint-Denis", "adresse": "H\u00f4tel du d\u00e9partement", "complement_adresse": "Esplanade Jean Moulin", "code_postal": "93000", "ville": "Bobigny", "region": "\u00cele-de-France", "etat": null, "pays": "France", "lien": null, "prospect": "non", "carte": "oui", "action": "Education", "latitude": "48.905672", "longitude": "2.451627"}, {"nom_projet": "Silat gong (dispositif Artistes et sportifs associ\u00e9s)", "nom": "D\u00e9partemental de Seine-Saint-Denis", "adresse": "H\u00f4tel du d\u00e9partement", "complement_adresse": "Esplanade Jean Moulin", "code_postal": "93000", "ville": "Bobigny", "region": "\u00cele-de-France", "etat": null, "pays": "France", "lien": null, "prospect": "non", "carte": "oui", "action": "Education", "latitude": "48.905672", "longitude": "2.451627"}, {"nom_projet": "Silat gong (dispositif Artistes et sportifs associ\u00e9s)", "nom": "Association Culture Silat", "adresse": "La maison du Taiji", "complement_adresse": "57 Rue Jules Ferry", "code_postal": "93170", "ville": "Bagnolet", "region": "\u00cele-de-France", "etat": null, "pays": "France", "lien": null, "prospect": "non", "carte": "oui", "action": "Education", "latitude": "48.858674", "longitude": "2.416985"}, {"nom_projet": "Classe culturelle num\u00e9rique - Mission La\u00efque Fran\u00e7aise", "nom": "Ecole fran\u00e7aise Mlf-Michelin", "adresse": null, "complement_adresse": null, "code_postal": null, "ville": "Zalau", "region": null, "etat": null, "pays": "Roumanie", "lien": null, "prospect": "non", "carte": "oui", "action": "Education", "latitude": null, "longitude": null}, {"nom_projet": "Classe culturelle num\u00e9rique - Mission La\u00efque Fran\u00e7aise", "nom": "Lyc\u00e9e Fran\u00e7ais International de Palma", "adresse": null, "complement_adresse": null, "code_postal": null, "ville": "Palma", "region": null, "etat": null, "pays": "Espagne", "lien": null, "prospect": "non", "carte": "oui", "action": "Education", "latitude": null, "longitude": null}, {"nom_projet": "Classe culturelle num\u00e9rique - Mission La\u00efque Fran\u00e7aise", "nom": "Dallas international school", "adresse": null, "complement_adresse": null, "code_postal": null, "ville": "Dallas", "region": null, "etat": "Texas", "pays": "Etats-Unis", "lien": null, "prospect": "non", "carte": "oui", "action": "Education", "latitude": null, "longitude": null}, {"nom_projet": "Classe culturelle num\u00e9rique - Mission La\u00efque Fran\u00e7aise", "nom": "Cours Lumi\u00e8re", "adresse": null, "complement_adresse": null, "code_postal": null, "ville": "Lom\u00e9", "region": null, "etat": null, "pays": "Togo", "lien": null, "prospect": "non", "carte": "oui", "action": "Education", "latitude": null, "longitude": null}, {"nom_projet": "Classe culturelle num\u00e9rique - Mission La\u00efque Fran\u00e7aise", "nom": "Lyc\u00e9e fran\u00e7ais International de l'AFLEC", "adresse": null, "complement_adresse": null, "code_postal": null, "ville": "Duba\u00ef", "region": null, "etat": null, "pays": "Emirats arabes unis", "lien": null, "prospect": "non", "carte": "oui", "action": "Education", "latitude": null, "longitude": null}, {"nom_projet": "Classe culturelle num\u00e9rique - Mission La\u00efque Fran\u00e7aise", "nom": "Lyc\u00e9e fran\u00e7ais de Bakou", "adresse": null, "complement_adresse": null, "code_postal": null, "ville": "Bakou", "region": null, "etat": null, "pays": "Azerba\u00efdjan", "lien": null, "prospect": "non", "carte": "oui", "action": "Education", "latitude": null, "longitude": null}, {"nom_projet": "Classe culturelle num\u00e9rique - Mission La\u00efque Fran\u00e7aise", "nom": "AWTY international school", "adresse": null, "complement_adresse": null, "code_postal": null, "ville": "Houston", "region": null, "etat": null, "pays": "Etats-Unis", "lien": null, "prospect": "non", "carte": "oui", "action": "Education", "latitude": null, "longitude": null}, {"nom_projet": "Classe culturelle num\u00e9rique - Mission La\u00efque Fran\u00e7aise", "nom": "Etablissement scolaire fran\u00e7ais Blaise Pascal", "adresse": null, "complement_adresse": null, "code_postal": null, "ville": "Lubumbashi\u00a0", "region": null, "etat": null, "pays": "Congo (R\u00e9p. d\u00e9m.)", "lien": null, "prospect": "non", "carte": "oui", "action": "Education", "latitude": null, "longitude": null}, {"nom_projet": "Classe culturelle num\u00e9rique - Mission La\u00efque Fran\u00e7aise", "nom": "Lyc\u00e9e international Marguerite Yourcenar", "adresse": null, "complement_adresse": null, "code_postal": null, "ville": "Reus", "region": null, "etat": null, "pays": "Espagne", "lien": null, "prospect": "non", "carte": "oui", "action": "Education", "latitude": null, "longitude": null}, {"nom_projet": "Classe culturelle num\u00e9rique - Mission La\u00efque Fran\u00e7aise", "nom": "Lyc\u00e9e Charcot", "adresse": null, "complement_adresse": null, "code_postal": null, "ville": "El Jadida", "region": null, "etat": null, "pays": "Maroc", "lien": null, "prospect": "non", "carte": "oui", "action": "Education", "latitude": null, "longitude": null}, {"nom": "H\u00f4tel Walker Hill", "adresse": "177 Walkerhill-ro, Gwangjin-gu", "complement_adresse": null, "code_postal": null, "ville": "S\u00e9oul", "region": null, "pays": "Cor\u00e9e du Sud", "lien": "https://www.walkerhill.com/grandwalkerhillseoul/", "date": "fin 2024?", "prospect": "oui", "carte": "oui", "action": "PDE", "latitude": "37.5543623", "longitude": "127.1112212"}, {"nom": "Manarat Al Saadiyat", "adresse": "Sheikh Khalifa Bin Zayed Al Nahyan Hwy - Al Saadiyat Island", "complement_adresse": null, "code_postal": null, "ville": "Abu Dhabi", "region": null, "pays": "Emirats arabes unis", "lien": "https://manaratalsaadiyat.ae/en/default.aspx", "date": "fin 2024?", "prospect": "oui", "carte": "oui", "action": "PDE", "latitude": "25.3267632", "longitude": "55.422269"}, {"nom": "P\u00f4le musique autour du Conservatoire \u00e0 Rayonnement d\u00e9partemental", "adresse": null, "complement_adresse": null, "code_postal": null, "ville": "Argenteuil", "region": "\u00cele-de-France", "pays": "France", "lien": null, "date": null, "prospect": "oui", "carte": "oui", "action": "PDE", "latitude": "48.955714", "longitude": "2.28794"}, {"nom": "Prospection au Japon", "adresse": null, "complement_adresse": null, "code_postal": null, "ville": null, "region": null, "pays": "Japon", "lien": null, "date": null, "prospect": "oui", "carte": "oui", "action": "PDE", "latitude": "36.5748441", "longitude": "139.2394179"}, {"nom": "Conservatoire de la Villa Hegra", "adresse": null, "compl\u00e9ment": null, "code": null, "ville": "Hegra", "r\u00e9gion": null, "etat_Province": null, "pays": "Arabie Saoudite", "date_d\u00e9but": null, "date_fin": null, "type_cooperation": "Conseil d'expertise pour la configuration du conservatoire", "prospect": "oui", "carte": "oui", "action": "Conseil", "latitude": "26.79118715", "longitude": "37.952443754648186"}, {"nom": "Conservatoire Maurice Ravel", "adresse": "58 all\u00e9e Auguste Genevi\u00e8ve", "code_postal": "93390", "ville": "Clichy-sous-Bois", "departement": "Seine-St-Denis", "region": "\u00cele-de-France", "pays": "France", "lien": "https://www.clichy-sous-bois.fr/mes-loisirs/vie-culturelle/le-conservatoire-maurice-ravel/", "nombre_structures": "1", "services": "AP", "prospect": "non", "carte": "oui", "action": "PAD", "latitude": "48.91741", "longitude": "2.543359"}, {"nom": "Conservatoire national sup\u00e9rieur de musique et de danse de lyon", "adresse": "3 quai chauveau", "code_postal": "69000", "ville": "Lyon", "departement": "Rh\u00f4ne", "region": "Auvergne-Rh\u00f4ne-Alpes", "pays": "France", "lien": "https://www.cnsmd-lyon.fr/", "nombre_structures": "1", "services": "A", "prospect": "non", "carte": "oui", "action": "PAD", "latitude": "45.768778", "longitude": "4.812609"}, {"nom": "L'Id\u00e9eth\u00e8que", "adresse": "1 chemin du val sec", "code_postal": "13170", "ville": "Les Pennes-Mirabeau", "departement": "Bouches-du-Rh\u00f4ne", "region": "Provence-Alpes-C\u00f4te d'Azur", "pays": "France", "lien": "https://ideetheque.fr/", "nombre_structures": "1", "services": "AP", "prospect": "non", "carte": "oui", "action": "PAD", "latitude": "43.379628", "longitude": "5.346643"}, {"nom": "M\u00e9diatheque", "adresse": "9 rue de Hamm", "code_postal": "54200", "ville": "Toul", "departement": "Meurthe-et-Moselle", "region": "Grand Est", "pays": "France", "lien": "https://mediatheque.toul.fr/", "nombre_structures": "1", "services": "AP", "prospect": "non", "carte": "oui", "action": "PAD", "latitude": "48.673742", "longitude": "5.894158"}, {"nom": "M\u00e9diatheque", "adresse": "2 rue Lasegue", "code_postal": "92320", "ville": "Ch\u00e2tillon", "departement": " Hauts-de-Seine", "region": "\u00cele-de-France", "pays": "France", "lien": "https://www.mediatheque-chatillon.fr/", "nombre_structures": "1", "services": "A", "prospect": "non", "carte": "oui", "action": "PAD", "latitude": "48.800885", "longitude": "2.286547"}, {"nom": "M\u00e9diath\u00e8que", "adresse": "30 rue Du General Leclerc", "code_postal": "78430", "ville": "Louveciennes", "departement": "Yvelines", "region": "\u00cele-de-France", "pays": "France", "lien": "https://bibliotheque.mairie-louveciennes.fr/", "nombre_structures": "1", "services": "A", "prospect": "non", "carte": "oui", "action": "PAD", "latitude": "48.861491", "longitude": "2.113345"}, {"nom": "M\u00e9diath\u00e8que", "adresse": "5 rue Alfred  Dubois", "code_postal": "91460", "ville": "Marcoussis", "departement": "Essonne", "region": "\u00cele-de-France", "pays": "France", "lien": "https://mediatheque.marcoussis.fr/", "nombre_structures": "1", "services": "A", "prospect": "non", "carte": "oui", "action": "PAD", "latitude": "48.642623", "longitude": "2.230886"}, {"nom": "M\u00e9diath\u00e8que d'Arles", "adresse": "place Felix Rey", "code_postal": "13200", "ville": "Arles", "departement": "Bouches-du-Rh\u00f4ne", "region": "Provence-Alpes-C\u00f4te d'Azur", "pays": "France", "lien": "https://mediatheque.ville-arles.fr/", "nombre_structures": "1", "services": "A", "prospect": "non", "carte": "oui", "action": "PAD", "latitude": "43.675799", "longitude": "4.626001"}, {"nom": "M\u00e9diath\u00e8que de M\u00e2con", "adresse": "23 Rue de la R\u00e9publique", "code_postal": "71000", "ville": "M\u00e2con", "departement": "Sa\u00f4ne-et-Loire", "region": "Bourgogne-Franche-Comt\u00e9", "pays": "France", "lien": "https://mediatheque.macon.fr", "nombre_structures": "1", "services": "A", "prospect": "non", "carte": "oui", "action": "PAD", "latitude": "46.299761", "longitude": "4.829827"}, {"nom": "M\u00e9diath\u00e8que intercommunale", "adresse": "16 Boulevard General de Gaulle", "code_postal": "26200", "ville": "Mont\u00e9limar", "departement": "Dr\u00f4me", "region": "Auvergne-Rh\u00f4ne-Alpes", "pays": "France", "lien": "https://mediatheque.montelimar-agglo.fr/", "nombre_structures": "1", "services": "AP", "prospect": "non", "carte": "oui", "action": "PAD", "latitude": "44.55707", "longitude": "4.748352"}, {"nom": "M\u00e9diath\u00e8que intercommunale de S\u00e9lestat", "adresse": "2 Espace Gilbert Esteve", "code_postal": "67600", "ville": "S\u00e9lestat", "departement": "Bas-Rhin", "region": "Grand Est", "pays": "France", "lien": "https://www.mediatheque-selestat.net/", "nombre_structures": "1", "services": "A", "prospect": "non", "carte": "oui", "action": "PAD", "latitude": "48.255594", "longitude": "7.456676"},